state_code,city,lat,lon,price_per_gallon,name,address,opis_id
OK,Big Cabin,36.5378,-95.2202,3.0073,WOODSHED OF BIG CABIN,"I-44, EXIT 283 & US-69",7
WI,Tomah,43.9747,-90.4957,3.2873,KWIK TRIP #796,"I-94, EXIT 143 & US-12 & SR-21",9
AZ,Gila Bend,32.9478,-112.7187,3.899,PILOT TRAVEL CENTER #1243,"I-8, EXIT 119 & SR-85",20
AR,Fort Smith,34.469704,-91.711358,3.399,LITTLEFIELD EXPRESS #2,"I-540, EXIT 12 & US-71",28
NJ,Columbia,34.0007,-81.0348,3.079,ACI TRUCK STOP,US-46,35
VA,Mount Jackson,38.7426,-78.6428,2.899,SHENANDOAH TRUCK CENTER,"I-81, EXIT 273 & SR-703/SR-292",36
TX,Jarrell,30.824,-97.6044,2.919,CIRCLE K #2612042,"I-35,  EXIT 271",44
AL,Shorter,32.3957,-85.9216,3.154,PETRO STOPPING CENTER #348,"I-85,  EXIT 22 & CR-138",46
IN,Seymour,40.996485,-88.472984,3.959,TA SEYMOUR TRAVEL CENTER,"I-65, EXIT 50 & US-50 & US-31",49
IA,Council Bluffs,41.2619,-95.8608,3.7257,TA COUNCIL BLUFFS TRAVEL CENTER,"I-29 & I-80, EXIT 3",50
ND,Sterling,48.734794,-98.963424,3.5157,TOPS TRUCK STOP,"I-94, EXIT 182 & US-83",56
CO,Montrose,38.4783,-107.8762,3.424,Good 2 Go #709,US-50,75
DE,Laurel,38.418523,-75.745376,3.229,OASIS TRAVEL PLAZA,US-13,77
DE,New Castle,39.794994,-74.686553,3.249,DELAWARE TRUCK PLAZA,US-13 & US-40,79
FL,Ellenton,27.5253,-82.521,3.439,One9 #89,"I-75, EXIT 224",81
CO,Dumont,39.7219,-105.6627,3.459,DOWNIEVILLE FUEL STOP,"I-70, EXIT 234",85
GA,Crawfordville,33.5537,-82.8971,3.499,MOLLYS FOOD & FUEL,"I-20 & ST 22, EXIT 55",91
MI,Bridgeport,43.591324,-83.080213,3.3373,TA SAGINAW I 75 TRAVEL CENTER,"I-75, EXIT 144-B",105
AZ,Lupton,35.3603,-109.0817,3.299,Lupton Truck Stop #567,"I-40, EXIT 359",118
AZ,Eloy,32.7837,-111.5548,3.474,PETRO STOPPING CENTER #306,"I-10, EXIT 200",121
KY,Henderson,36.0395,-114.9817,3.609,CIRCLE K #4700095,US-41,127
IL,Effingham,39.12,-88.5434,3.4323,THE EFFINGHAM CHROME SHOP,"I-57 & I-70, EXIT 159",128
IL,Atkinson,40.461222,-89.771431,3.4757,LOVES TRAVEL STOP #766,"I-80, EXIT 27",135
IN,Daleville,40.1231,-85.538,3.624,SPEEDWAY #8039,"I-69, EXIT 234 & SR-67",147
IN,Fort Wayne,41.0793,-85.1394,3.5923,RAYS TRUCK WASH,"I-69, EXIT 309 & US-30",149
NE,Gothenburg,40.9261,-100.1605,3.1323,CUBBYS #2101,"I-80, EXIT 211 & SR-47",151
FL,Jacksonville,30.3322,-81.6557,3.859,PILOT TRAVEL CENTER #87,"I-10, EXIT 343",159
LA,Denham Springs,30.488,-90.9579,3.2323,PILOT TRAVEL CENTERS #79,"I-12, EXIT 10 AT MILE 10",160
IN,Lake Station,41.5742,-87.252,3.809,FLYING J TRAVEL PLAZA #650,"I-94, EXIT 15 B",164
IN,Hebron,40.843544,-86.143572,3.4357,FLYING J TRAVEL PLAZA #653,RT 2 & I-65 EXIT 240,167
TX,Nacogdoches,30.072134,-95.472285,2.859,Hop-In Food Stores,US-59 & SR-224,174
IA,Council Bluffs,41.2619,-95.8608,3.719,SAPP BROS TRAVEL CENTER,"I-29 & I-80, EXIT 1B",184
WY,Moorcroft,41.467731,-107.876019,3.239,COFFEE CUP FUEL STOP #5,"I-90, EXIT 154 & US-16",186
IA,Latimer,42.7661,-93.368,3.2323,DUDLEYS CORNER,"I-35, EXIT 165 & SR-3",187
IA,Clear Lake,42.417421,-94.71935,3.1857,KUM & GO #0302,"I-35, EXIT 193 & SR 106",191
IA,Stuart,42.382127,-92.636997,3.099,Brew Stuart Truckstop,"I-80, EXIT 93",192
AR,West Memphis,35.1465,-90.1845,3.3673,PETRO STOPPING CENTER #311,"I-40 & I-55, EXIT 280",195
CO,Atwood,40.5366,-103.251,3.299,SINCLAIR,"I-76, EXIT 115",198
KS,Salina,39.485424,-96.13531,3.8057,PETRO STOPPING CENTER #366,"I-70, EXIT 252",199
IN,Highland,40.949426,-84.83769,3.814,PILOT TRAVEL CENTER #31,"I-80/94, EXIT 2",203
OH,Sardinia,39.0081,-83.8098,3.5657,MARATHON,SR-32,207
MS,Ocean Springs,30.4099,-88.827,3.4157,CIRCLE K #2721593,"I-10, EXIT 50",216
KS,Salina,39.485424,-96.13531,3.0257,NORTH 9TH 24/7,"I-70, EXIT 252",217
KY,Mount Vernon,38.674022,-85.878891,2.999,DERBY CITYS TRUCK PLAZA,"I-75, EXIT 62 & US-25",231
FL,Ocala,28.41922,-81.872077,3.3857,PILOT TRAVEL CENTERS #92,"I-75, EXIT 358",235
LA,Port Allen,30.4527,-91.2085,3.039,LA 1 SOUTH TRUCKSTOP,"I-10, EXIT 153 & SR-1",240
IN,Lake Village,40.349426,-87.608278,3.179,SAVE,US-41 & SR-10,243
LA,Duson,30.231,-92.179,2.9823,BIG D TRUCK TRAVEL PLAZA,"I-10, EXIT 92 & SR-95",244
LA,New Orleans,29.9511,-90.0715,3.729,Mardi Gras Truck Stop,"I-10, EXIT 236",248
KS,Hays,38.8789,-99.3267,3.499,GOLDEN OX TRUCK STOP,"I-70/US-40, EXIT 159 & US-183",250
AR,West Memphis,35.1465,-90.1845,3.3257,LOVES TRAVEL STOP #450,"I-40, EXIT 280 & I-55, EXIT 4",253
MD,Grantsville,38.858064,-77.67563,3.899,BFS FOODS #66,"I-68/US-40, EXIT 22 & US-219",256
MT,Great Falls,47.5002,-111.3008,3.6357,PILOT TRAVEL CENTER #917- TOWN PUMP,I-15 & 31ST STREET EXIT 277,257
MI,Bridgman,41.9428,-86.5569,3.559,CASEYS #3956,I-94 EXIT 16,263
KS,Dodge City,37.7528,-100.0171,3.399,CORNER MARKET #117,SR-154 & SR-129,267
MI,Monroe,43.014853,-83.486095,3.379,PILOT TRAVEL CENTERS #24,"I-75, EXIT 15",269
IN,Carlisle,39.478838,-85.861219,3.499,CARLISLE PLAZA,US-41,278
IN,Taylorsville,38.525897,-85.843572,3.399,CIRCLE K #4700065,"I-65, EXIT 76 & US-31",281
KS,Lawrence,37.944247,-94.970604,3.229,LOVES TRAVEL STOP #173,"I-70, MM 209",289
KS,Cherryvale,37.27,-95.5536,3.2323,PETES #56,US-169 & CR-5000,292
KS,Matfield Green,38.1541,-96.5449,3.2557,LOVES TRAVEL STOP #176,"I-35, MILE MARKER 97",293
MA,Springfield,39.7817,-89.6501,3.599,FL Roberts,"I-91, EXIT 4",304
KS,Kansas City,39.0997,-94.5786,3.199,QUIKTRIP #231,"I-635, EXIT 3",309
NE,Ogallala,41.1283,-101.7196,3.4657,SAPP BROS TRAVEL CENTER,"I-80, EXIT 126",323
UT,Willard,39.897091,-110.988905,3.749,FLYING J TRAVEL PLAZA #748,"I-15, EXIT 357",326
FL,Saint Johns,27.807455,-80.795607,3.469,TA JACKSONVILLE SOUTH TRAVEL CENTER,"I-95, EXIT 329",341
IN,Portage,38.596485,-87.325925,3.9907,7-ELEVEN #40514,I-90/80-IN TOLL RD MM 22E,347
NY,Binghamton,42.0987,-75.918,3.724,TA BINGHAMTON TRAVELCENTER,"I-81N, EXIT 2W & I-81S, EXIT 3",358
FL,Jacksonville,30.3322,-81.6557,3.3157,CIRCLE K #2726293,"I-295, EXIT 25",361
NY,Gansevoort,43.1706,-73.6471,3.774,WILTON TRAVEL PLAZA,"I-87, EXIT 16",368
IN,Hammond,39.831779,-84.290631,3.999,GAS DEPOT,"I-94, EXIT 5",372
TX,Jacksonville,30.3322,-81.6557,2.9157,7-Eleven #41830,US-69 & US-135,381
AZ,Yuma,32.653288,-113.645927,3.489,Circle K #2709664,"I-8, EXIT 12",387
OH,Sunbury,40.2428,-82.859,3.719,Pilot Travel Centers #14,"I-71, EXIT 131",388
OH,Seville,41.0003,-81.8687,3.699,PILOT TRAVEL CENTERS #13,"I-71, EXIT 209",391
OH,Hebron,39.877018,-81.291386,3.429,TRUCKOMAT OF HEBRON,"I-70, EXIT 126 & SR-37",403
OH,Perrysburg,41.5578,-83.6274,3.499,FUEL MART #641,"I-80 & I-280, EXIT 71",407
OK,Oklahoma City,35.4676,-97.5164,3.3023,PETRO STOPPING CENTER #316,"I-40 & I-35, EXIT 127",421
OK,Choctaw,35.900636,-98.137741,2.899,E EXPRESS,"I-40, EXIT 166",424
GA,Dublin,33.51709,-85.293074,3.299,Neighbors Express,"I-16, EXIT 51",425
NE,Alliance,40.872429,-98.029847,3.324,WESTERN COOP,US-385 & SR-2,442
VA,Ruther Glen,37.9315,-77.4885,3.2657,MR FUEL #753,"I-95, EXIT 104 & SR-207",455
IN,Woodburn,41.231779,-85.402396,3.399,THE COUNTRY OASIS,US-24,456
MO,Rock Port,40.4117,-95.5133,3.399,HAPPY HILLS GAS & COFFEE,I-29 EXIT 110,458
SC,Gilbert,33.3528,-111.789,3.079,TRUCK STOP 44,I-20 EXIT 44,460
SC,Orangeburg,33.4918,-80.8651,3.2623,SPINX #271,"I-26, EXIT 145 & US-601",461
CO,Alamosa,37.4695,-105.87,3.259,LOAF N JUG #750010,US-160 & SR-17,469
MS,Toomsuba,32.3504,-88.4823,3.299,KEWANEE 1 STOP,"I-20, EXIT 169 & US-80",474
ND,Pembina,48.9659,-97.2428,3.299,GASTRAK OF PEMBINA,"I-29, EXIT 215",478
OK,Guymon,36.6853,-101.481,2.9757,ALLSUPS #2387,US-54/SR-136/SR-3 & US-64,483
TX,Laredo,27.5306,-99.4803,3.299,LA NORIA CONV STORES,"I-35 N, EXIT 4",486
MT,Moore,46.386631,-112.192588,3.749,EDDIES CORNER,US-87 & US-191,489
TN,Heiskell,36.1884,-84.0374,2.999,One9 #403,"I-75, EXIT 117",491
TN,Knoxville,35.9606,-83.9207,3.439,PILOT TRAVEL CENTERS #270,"I-40 & I-75, EXIT 374",496
TX,Van Horn,31.0391,-104.8307,3.649,LOVES TRAVEL STOPS #256,"I-10, EXIT 140B",509
OH,Lore City,39.771136,-83.00315,3.179,GO MART FOOD STORE #57,"I-70 & ST-285, EXIT 186",522
GA,Gainesville,32.152384,-82.769545,3.2657,CIRCLE K #2723322,"I-985, EXIT 20 & SR-60",523
MS,West Point,33.641646,-90.16399,3.059,FASTBREAK,US-45 ALT,525
IN,Wanatah,39.878838,-85.667102,3.499,PLAZA 30,US-30,546
IL,Peru,38.849457,-90.159666,3.429,SAPP BROS TRAVEL CENTER,"I-80, EXIT 73",557
AR,Maumelle,33.61088,-92.381947,3.2073,SHELL MORGAN ROAD TRUCK STOP,"I-40, EXIT 142",559
IN,Gary,41.137661,-84.978866,3.8307,TA GARY TRAVEL CENTER,"I-80/I-94, EXIT 6",566
AZ,Eloy,32.7837,-111.5548,3.459,TA ELOY TRAVEL CENTER,"I-10 & I-8, EXIT 203",567
IN,Fort Wayne,41.0793,-85.1394,3.889,PILOT TRAVEL CENTER #881,"I-69, EXIT 309A",572
LA,Egan,30.834666,-92.40604,3.624,PETRO STOPPING CENTER #343,"I-10, EXIT 76",576
OR,Troutdale,45.5393,-122.3887,3.779,LOVES TRAVEL STOP #449,"I-84, EXIT 17",578
WY,Rock Springs,41.5875,-109.2029,3.6707,FLYING J TRAVEL PLAZA #764,"I-80, EXIT 104 & US-191",579
WA,Prosser,46.2068,-119.7654,4.479,AMERISTAR TRAVEL PLAZA #120,"I-82, EXIT 80",586
AL,Cottondale,33.15373,-88.088189,2.964,TA TUSCALOOSA TRAVEL CENTER,"I-20/I-59, EXIT 77",588
MO,Concordia,38.497261,-92.350133,3.2257,TA Concordia Travel Plaza,"I-70, EXIT 58 & SR-23",591
NE,Sidney,42.484194,-97.147494,3.5007,Sapp Bros Travel Center,"I-80, EXIT 59 & SR-17J",599
NH,Lebanon,43.152492,-69.437425,3.599,JIFFY MART EXIT 18 TRUCK STOP,"I-89/SR-120, EXIT 18 & SR-120",602
NY,Montgomery,32.3668,-86.2999,4.359,TA MAYBROOK TRAVEL CENTER,"I-84, EXIT 5",614
OH,Geneva,39.053489,-81.909033,3.1523,KWIK FILL #227,"I-90,  EXIT 218",628
OR,Albany,43.460256,-121.656232,3.379,UNION 76,"I-5, EXIT 233 E",636
TN,Holladay,36.530198,-87.071757,2.9857,ONE9 #1366,"I-40, EXIT 126 & US-641",651
TN,Knoxville,35.9606,-83.9207,3.4257,TA KNOXVILLE EAST TRAVEL CENTER,"I-40 & I-75, EXIT 374",652
TX,Canutillo,31.719193,-98.295814,3.499,PETRO STOPPING CENTER #350,"I-10,  EXIT 4",669
NJ,Thorofare,39.598904,-72.835717,3.549,CROWN POINT TRUCK STOP,"I-295/US-130,EXIT 22",672
SD,Summit,44.87037,-101.177063,3.2057,TA EXPRESS SUMMIT,"I-29, EXIT 207 & US-12",680
NY,Randolph,41.112785,-75.309816,4.499,7-ELEVEN #35101,"I-86/SR-17, EXIT 16",684
KS,Wichita,37.6872,-97.3301,3.499,FLYING EAGLE,"I-235, EXIT 4",689
IA,Ottumwa,43.393892,-92.31935,3.399,BP,US-63,692
KY,Greenup,38.532846,-85.208302,3.649,Arco #364420,US-23,739
CO,Evans,38.289223,-104.314045,3.1723,QUIKTRIP #4231,US-85,748
MO,Alexandria,39.061967,-91.538368,3.0157,AYERCO #26,US-61/US-136,769
WI,Barneveld,44.345014,-89.801802,3.489,Kwik Trip #1508,"US-18/SR-151, EXIT 58",815
IL,North Chicago,39.390633,-89.859666,3.389,SPEEDWAY #7459,US-41 & SR-137,855
GA,Sylvania,32.446501,-84.975427,3.499,Ocean Fuel,US-301/SR-73,863
AR,West Memphis,35.1465,-90.1845,3.395,PILOT TRAVEL CENTERS #429,"I-40, EXIT 280",906
AL,Pelham,34.012553,-87.24113,3.4657,CIRCLE K #2704888,"I-65, EXIT 246 & SR-119",908
AL,Mc Calla,31.694906,-86.04113,3.1257,PETRO STOPPING CENTER #319,"I-20/59,  EXIT 100",912
AR,Conway,34.975586,-91.887829,3.0323,CASEYS #4254,"I-40, EXIT 129",936
AZ,Phoenix,33.4484,-112.074,3.3923,CIRCLE K #2702885,"I-17/SR-60, EXIT 199A",970
AZ,Quartzsite,34.394465,-112.040045,3.959,PILOT TRAVEL CENTER #328,"I-10, EXIT 17",977
ID,Blackfoot,43.1902,-112.3449,3.5323,STINKER #85,"I-15, EXIT 93",981
AZ,Yuma,32.653288,-113.645927,3.5657,CIRCLE K #2701948,"I-8, EXIT 7 & SR-195",982
DE,New Castle,39.794994,-74.686553,3.424,FOUR STATES TRUCK STOP,"I-495, EXIT 4 & SR-9",1028
FL,Lake City,26.548632,-80.107371,3.5623,Union 76,US-441 & SR-100A,1042
FL,Lake City,26.548632,-80.107371,3.2515,ONE9 #1401,I-75 EXIT 414  & US-41,1043
FL,Marianna,26.972161,-79.525018,3.6073,TA MARIANNA TRAVEL CENTER,"I-10/SR-8, EXIT 142 & SR-71",1047
GA,Dublin,33.51709,-85.293074,3.4157,PILOT TRAVEL CENTER #68,"I-16 /SR-404, EXIT 51 & US-441",1075
GA,Thomson,31.940619,-82.73425,3.399,CIRCLE K #2705367,"I-20, EXIT 172",1106
IA,Denison,42.08801,-94.172291,3.399,BC AMPRIDE TRUCK PLAZA,US-59/SR-141,1112
IA,Parkersburg,42.782127,-93.889938,3.5823,KWIK STAR #704,SR-57/SR-14,1115
ID,Eden,43.4934,-113.393534,3.799,TRAVELERS OASIS,"I-84, EXIT 182",1121
IL,Wadsworth,39.343575,-90.371431,3.8115,TA CHICAGO NORTH TRAVEL CENTER,"I-94/US-41, EXIT 1",1128
IL,Ina,39.708281,-89.259666,3.249,SPEEDWAY #7423,"I-57, EXIT 83",1132
IL,Oakwood,39.661222,-90.91849,3.499,PILOT TRAVEL CENTER #171,"I-74, EXIT 206",1136
IL,Divernon,40.214163,-89.11849,3.499,CIRCLE K #4701398,"I-55, EXIT 82 & SR-104",1140
IN,Greenfield,38.820014,-86.63769,3.959,PILOT TRAVEL CENTER #30,"I-70, EXIT 96",1149
IN,Knightstown,41.290602,-87.784749,3.759,SPEEDWAY #8061,"I-70, EXIT 115 & SR-109",1151
TX,Cedar Creek,29.954487,-96.231108,3.199,CIRCLE K #2704691,SR-71 & CR-214,1154
IN,Shelbyville,41.020014,-85.790631,3.599,CIRCLE K #4700028,"I-74/US-421, EXIT 116 & SR-44",1156
IN,Terre Haute,41.149426,-88.490631,3.4357,One9 #297,"I-70, EXIT 11 & SR-46",1157
IN,Valparaiso,39.961191,-84.767102,3.864,PILOT TRAVEL CENTERS #36,US-30  & SR-49,1158
KS,Emporia,39.379541,-98.217662,2.839,SHORT STOP #13,US-54,1163
KY,Georgetown,38.850493,-83.373008,3.2057,PILOT TRAVEL CENTERS #353,"I-75, EXIT 129",1176
KY,Lebanon Junction,37.238728,-84.890655,3.609,PILOT TRAVEL CENTERS #399,"I-65, EXIT 105",1179
LA,Saint Francisville,30.693489,-92.353099,3.384,SOUTHERN BELLE TRUCK STOP,US-61 & SR-964,1196
MA,Leominster,42.694877,-71.874224,3.6823,ALLTOWN MARKETS #306,"I-190, EXIT 7",1199
MD,Perryville,37.869828,-75.99916,3.599,ONE9 #290,"I-95, EXIT 93 & SR-222",1202
IL,Effingham,39.12,-88.5434,3.434,PETRO STOPPING CENTER #321,"I-70 & I-57, EXIT 159",1204
MI,Kalamazoo,43.203089,-84.544919,3.299,D AVENUE FUEL PLAZA,US-131,1208
MI,Paw Paw,42.461912,-83.521389,3.579,ROADHAWK TRAVEL CENTER,"I-94, EXIT 56 & SR-51",1210
MN,Austin,30.2672,-97.7431,3.374,KWIK TRIP #250,"I-90, EXIT 179",1217
MN,Pillager,46.041513,-95.62078,3.299,CASEYS #3658,SR-210,1218
MO,Bowling Green,39.16785,-94.132486,3.0157,AYERCO #35,US-61 & US-61 BUS,1225
MO,Lamar,38.720791,-90.056015,3.199,Lamar Travel Plaza,US-71 & US-160,1234
MO,Palmyra,37.850203,-90.108956,3.0157,AYERCO #44,US-36 & US-24,1236
MO,Sedalia,39.56785,-93.373662,3.199,TEMP STOP #103,US-65,1240
MO,West Plains,37.685497,-93.532486,3.299,SNAPPY MART #11,US-63 & SR-14,1247
MS,Corinth,31.90047,-89.899284,3.154,MAPCO #3009,US-72,1251
MS,Greenville,31.829881,-88.258108,3.2557,DOUBLE QUICK #89,US-82/US-278,1256
MS,Red Banks,32.07694,-88.628696,2.9723,JOE JOES TRAVEL CENTER,US-78 & RED BANKS RD S,1265
NC,Mebane,36.0957,-79.2678,3.9473,LOVES TRAVEL STOP #667,"I-85, EXIT 152",1304
NC,Sanford,34.612419,-81.262301,3.0823,CIRCLE K #2720218,US-421 BUS & US-15/US-501/US-1,1315
NC,Wilmington,36.883007,-78.879948,3.629,SCOTCHMAN #3303,US-421 & US-74,1325
NC,Wilson,34.306537,-80.415243,3.199,SPEEDWAY #7949,US-301/US-264 ALT & CR-1674,1326
NE,Grand Island,40.437135,-97.729847,3.3073,PUMP & PANTRY #15,US-30,1333
NJ,Bordentown,40.187139,-74.459246,3.499,BORDENTOWN VALERO,"NJ TNPK, EXIT 7 & US-206",1340
NJ,Fairfield,41.104786,-72.482776,3.2023,Delta,"I-80, EXIT 47B",1342
NJ,Mahwah,40.222433,-74.79454,3.5323,BOLLA TRUCK STOP #193,US-202 & SR-17,1344
NJ,Palmyra,41.645963,-72.712187,3.359,GLOBAL,SR-73,1348
NM,Milan,36.305221,-105.6926,3.5907,LOVES TRAVEL STOP #257,"I-40 & HORIZON, EXIT 79",1356
IN,Rolling Prairie,41.00825,-88.31416,3.9823,7- ELEVEN #40507,"I-80/I-90, MM 56 WB",1364
OH,Canton,41.041724,-81.891386,3.6223,PILOT TRAVEL CENTER #469,"I-77, EXIT 101 & SR-627",1372
OH,Lima,40.747607,-83.585503,3.0857,FUEL MART #782,"I-75, EXIT 118",1376
OH,Seville,41.0003,-81.8687,3.739,TA LODI TRAVEL CENTER,"I-71, EXIT 209 & I-76/US-224, EXIT 1",1379
OH,Montpelier,40.159371,-80.709033,3.4157,SUNOCO,"I-80/I-90, EXIT 13 & US-20ALT/SR-15",1384
OK,Billings,45.7833,-108.5007,3.2157,ONCUE EXPRESS #2045,"I-35, EXIT 203 & SR-15",1391
OK,Clinton,35.771224,-94.731858,3.099,DOMINO FOOD AND FUEL #1,"I-40, EXIT 66",1395
IN,Covington,40.055308,-85.490631,3.2623,ONE9 #339,"I-74, EXIT 4 & SR-63",1404
PA,Breezewood,39.9959,-78.2378,4.099,SAC SHOP #507,"I-70, EXIT 12/161",1414
PA,Gettysburg,40.090752,-77.253873,3.899,GETTYSBURG TRAVEL PLAZA,US-15 & SR-394,1424
IN,Lafayette,41.325897,-85.543572,3.4323,CIRCLE K #4702408,"I-65, EXIT 168 & SR-38/SR-25",1428
PA,Mechanicsburg,40.18487,-78.47152,4.049,KWIK FILL #259,"I-81, EXIT 57",1432
SC,Lugoff,33.003951,-79.559713,3.4323,PILOT TRAVEL CENTERS #346,"I-20, EXIT 92 & US-601",1444
WY,Cheyenne,41.432437,-106.305431,3.709,PILOT TRAVEL CENTERS #402,"I-80, EXIT 367",1445
SC,Chesnee,34.945127,-79.718536,3.199,HOT SPOT #3005,US-221,1447
GA,Rockmart,32.199443,-82.85778,3.319,EXPRESS STOP,US-278/SR-101/SR-6 & SR-113,1453
SC,Florence,33.85101,-79.083242,3.3257,PETRO FLORENCE,"I-95, EXIT 169",1455
SC,Inman,33.803951,-79.047948,3.099,CIRCLE K #2705370,"I-26, EXIT 15 & US-176",1461
SC,Lexington,38.0406,-84.5037,3.199,CIRCLE K #2723254,"I-20, EXIT 55 & SR-6",1464
SC,Beech Island,32.980421,-79.506772,3.159,CIRCLE K #2705348,US-1,1470
SC,Duncan,32.898068,-79.189125,3.4323,TA SPARTANBURG TRAVEL CENTER,"I-85, EXIT 63 & SR-290",1479
TN,Greeneville,36.283139,-84.565874,3.499,ROADRUNNER MARKET #6019,"I-81, EXIT 36 NORTH",1487
TN,Chattanooga,35.0456,-85.3097,2.899,MAPCO #3538,"I-24, EXIT 174",1492
TN,Memphis,35.1495,-90.049,3.189,CIRCLE K #4703941,"I-55, EXIT 5A",1507
TX,Amarillo,32.119193,-99.566402,3.2323,LOVES TRAVEL STOP #261,I-27 EXIT 116,1516
IN,Shelbyville,41.020014,-85.790631,3.509,CircleK #4702365,"I-74, EXIT 112 & SR-9",1531
TX,Brownfield,32.201546,-99.125226,2.9923,YESWAY #1157,US-62,1533
TX,Dilley,28.665,-99.177,3.099,SHELL,"I-35, EXIT 86 & SR-85",1546
TX,Dumas,31.83684,-97.925226,3.0323,TOOT N TOTUM #107,US-287,1548
TX,Freer,31.789781,-96.531108,3.099,STRIPES #40911,US-59 & SR-16,1552
CO,Seibert,38.795105,-106.978751,3.499,SEIBERT TRAVEL PLAZA,"I-70, EXIT 405 & SR-59",1555
NY,Irving,41.148079,-73.774522,2.949,CATTREZ,US-20 & SR-5,1560
TN,Wildersville,34.753727,-86.648227,3.099,I MART #108,"I-40, EXIT 108",1562
IA,Des Moines,41.5868,-93.625,3.0273,KUM & GO #4110,"I-235, EXIT 11",1567
MT,Butte,46.0038,-112.5348,3.5657,FLYING J TRAVEL PLAZA #924- TOWN PUMP,"I-15, EXIT 122 & I-90 MM220",1579
TX,Amarillo,32.119193,-99.566402,3.314,LOVES TRAVEL STOP #250,I-40 EXIT 60,1582
TX,Andrews,31.519193,-98.895814,3.369,Stripes 7Fleet #42498,US-385 & CR-1910,1585
IN,Lake Station,41.5742,-87.252,3.559,ROAD RANGER #240,"I-80 & I-94, EXIT 15-A",1590
NM,Jamestown,35.52875,-105.657306,3.4423,FLYING J #305,"I-40, EXIT 39",1596
PA,Eighty Four,40.090752,-76.742108,4.999,7-ELEVEN #36156,"I-70 & SR-519, EXIT 25/333",1597
NY,Mc Graw,43.206902,-73.350992,3.449,ONVO TRAVEL PLAZA,"I-81, EXIT 10",1599
MS,Beaumont,30.0802,-94.1266,3.5657,CIRCLE K #2723387,US-98,1602
WA,Marysville,47.136196,-121.799318,4.559,DONNAS TRAVEL PLAZA,"I-5, EXIT 202",1606
MD,Baltimore,39.2904,-76.6122,4.759,TA BALTIMORE TRAVEL CENTER,"I-95, EXIT 57",1610
WV,Ripley,38.532402,-81.580924,3.499,GO MART FOOD STORE #33,US-33,1618
AL,Birmingham,33.5186,-86.8104,3.489,CIRCLE K #2709337,"I-65, EXIT 262B",1621
TX,Bridgeport,31.001546,-96.989932,2.7823,RACEWAY #6973,US-380 & SR-114/SR-101,1622
CO,Commerce City,40.112752,-105.372869,3.389,SAPP BROS TRAVEL CENTER,"I-70 & I-270, EXIT 278",1623
SC,Bowman,32.968657,-83.089125,3.4323,PILOT TRAVEL CENTERS #60,"I-26, EXIT 159",1625
NM,Las Cruces,35.15228,-107.580835,3.1907,PILOT TRAVEL CENTERS #266,"I-10, EXIT 139 & SR-292",1632
TX,Von Ormy,29.907428,-97.889932,3.109,7-ELEVEN #36302,"I-35, EXIT 144",1633
WI,Oak Creek,43.192072,-89.678273,3.889,PILOT TRAVEL CENTERS #40,"I-94, EXIT 322",1634
TX,Roscoe,30.272134,-96.813461,2.929,ALLSUPS CONVENIENCE STORE #2414,"I-20, EXIT 235",1644
IN,Plymouth,39.961191,-85.667102,3.609,SPEEDWAY #8310,US-6  & US-31,1646
IN,Hammond,39.831779,-84.290631,3.7657,SPEEDWAY #8305,US-41 & SR-312,1647
IL,Chicago,41.8781,-87.6298,3.584,ROAD RANGER #187,"I-55, EXIT 289",1653
TX,Cameron,31.860369,-97.925226,2.989,CEFCO #3,US-77/US190/SR-36,1654
LA,Calhoun,31.834666,-91.294276,3.159,CHEVRON,"I-20, EXIT 101 & SR-151",1661
NY,Fultonville,43.512785,-74.427463,3.169,BETTY BEAVERS TRUCKSTOP,"I-90, EXIT 28",1669
MO,Joplin,38.36785,-94.397192,3.449,Petro Stopping Center #54,"I-44, EXIT 4 & SR-3",1670
NC,Dunn,34.141831,-78.862301,3.699,LOVES TRAVEL STOP #412,"I-95, EXIT 77",1671
TX,Amarillo,32.119193,-99.566402,2.899,HANA TRAVEL PLAZA,"I-40,  EXIT 77",1672
AL,Sylacauga,32.436083,-85.070542,3.799,ALLENS FOOD MART280,US-280/US-231/SR-53/SR-38 & CR-8/CR-34,1699
TX,Daingerfield,30.213311,-97.042873,3.109,TOPPS FUEL STOPS,US-259/SR-49,1700
KS,Liberal,39.944247,-95.800015,3.0157,TOOT N TOTUM #120,US-54 & S WESTERN AVE,1720
TX,Buna,29.601546,-95.842873,3.149,HIGHWAY 96 FUEL STOP,US-96 & SR-62/FM-1004,1749
TX,Abbott,31.907428,-96.33699,2.899,PWI #169,"I-35/US-77, EXIT 359 & CR-1304",1753
MI,Howard City,43.191324,-86.239036,3.299,M-46 AUTO TRUCK PLAZA,"US-131, EXIT 120 & SR-46",1773
TX,Midland,32.025075,-95.684049,3.5657,PILOT TRAVEL CENTERS #257,"I-20, EXIT 126 & FM-1788",1791
TX,Panhandle,29.848605,-95.489932,3.314,LOVES TRAVEL STOP #229,I-40 EXIT 96 & SR-207,1807
TX,Perryton,32.083899,-96.63699,2.999,KENT KWIK #804,US-83,1810
FL,Okeechobee,27.630985,-80.830901,3.709,PILOT TRAVEL CENTERS #96,"SR- 60 & FL TURNPIKE, EXIT 193",1829
MS,Hattiesburg,33.90047,-87.799284,3.299,CORNER FUEL CENTER,US-49,1832
TX,Marshall,32.5449,-94.3674,2.899,PUMP N PANTRY #15,"I-20, EXIT 617 & US-59",1834
TX,San Angelo,31.107428,-98.913461,3.244,Stripes #42457,US-67/US-277,1849
MI,Byron Center,42.5325,-84.650801,3.499,EXIT 76 AUTO TRUCK PLAZA,US-131,1855
TX,San Antonio,29.4241,-98.4936,3.224,FLYING J TRAVEL PLAZA #737,"I-10, EXIT 583",1858
WV,Sutton,37.920638,-80.769159,3.559,GO MART FOOD STORE #44,"I-79, EXIT 67 & US-19/SR-4",1859
KY,Walton,38.56814,-84.096538,3.019,MR FUEL #278,"I-75/71, EXIT 175 & SR-338",1860
AZ,Kingman,35.1895,-114.053,3.899,PETRO STOPPING CENTER #315,"I-40, EXIT 66",1861
MI,Benton Harbor,43.579559,-83.69786,3.649,PRI MART FUEL CENTER,"I-94, EXIT 29",1866
MI,Niles,44.167794,-84.47433,3.799,JDS TRUCKSTOP,"US-12 & US-31, EXIT 3",1873
TX,Seagoville,32.095663,-96.03699,2.9507,CIRCLE K #2744529,US-175,1874
MN,Lakeville,46.465042,-92.409016,3.549,HOLIDAY STATIONSTORE #3552,"I-35, EXIT 81 & SR-70",1879
TX,Sterling City,30.460369,-98.172285,3.2807,STRIPES 7FLEET #42449,US-87,1888
TX,Stratford,32.272134,-98.189932,2.9657,TOOT N TOTUM #105,US-54 & US-287,1889
TX,Terrell,32.7357,-96.2752,2.8707,MIKE MCDONALD TRUCK STOP,"I-20, EXIT 509",1893
TX,Three Rivers,28.4613,-98.1851,3.0657,CIRCLE K #2741544,"I-37 & SR-72, EXIT 69",1894
TX,Tye,30.672134,-98.207579,2.8757,YESWAY #1077,"I-20/US-84, EXIT 278",1897
TX,Whitesboro,30.530958,-97.254637,2.8857,LUCKY TRUCK STOP,US-82,1905
UT,Cedar City,38.779444,-110.865375,3.459,RALLYSTOP #1,"I-15, EXIT 62",1909
UT,Green River,41.5272,-109.466,3.709,LOVES TRAVEL STOP #792,"I-70, EXIT 160",1914
UT,Park City,39.638267,-110.95361,3.4523,BELL TRUCK STOP,"I-80, EXIT 146",1921
UT,Salina,41.508856,-112.788905,3.459,SCENIC QUIK STOP,"I-70, EXIT 54 & US-89",1923
KS,Wellington,37.556012,-94.63531,3.299,CASEYS #3058,"I-35, EXIT 19 & US-160 E",1930
UT,Woods Cross,40.602973,-111.147728,3.459,RBS ONE STOP,"I-15, EXIT 320",1931
VA,Austinville,36.904631,-78.531733,3.2407,CIRCLE K #2723710,"I-77, EXIT 24",1934
VA,Bristol,38.434043,-80.084674,3.399,QUICK STOP MARKET #36,"I-81, EXIT 10 & US-11",1936
VA,Dublin,37.186984,-78.390556,3.199,7-ELEVEN #40063,"I-81, EXIT 98 & SR-100",1940
VA,Lambsburg,38.245808,-76.396439,3.589,LOVES TRAVEL STOPS #399,"I-77, EXIT 1 & SR-620",1944
VA,King George,36.598749,-79.74938,3.399,7-ELEVEN #34515,"I-81, EXIT 205",1950
VA,Staunton,38.975219,-77.278792,3.3857,CIRCLE K #2723713,"I-81, EXIT 205",1951
VA,Gordonsville,37.245808,-80.190556,3.699,FAS MART #3555,"I-64, EXIT 136 & US-15",1953
VA,Suffolk,39.010513,-76.272909,3.0323,Joe's Kwik Mart #8409,US-58 & CR-645,1954
VA,Toms Brook,36.422278,-78.461144,3.659,PILOT TRAVEL CENTER #4642,"I-81, EXIT 291",1956
VA,Wytheville,36.9484,-81.0848,3.4123,SPEEDWAY #4618,"I-81 & I-77, EXIT 77",1958
VT,Montpelier,42.887052,-71.501862,3.699,MAPLEWOOD IRVING,"I-89, EXIT 7",1960
KY,Grayson,39.156375,-84.678891,3.799,SUPER QUIK,"I-64, EXIT 172 & SR-1/SR-7",1962
WA,Spokane,47.6588,-117.426,3.974,One9 #963,"I-90, EXIT 276",1976
WA,Toledo,41.6639,-83.5552,3.839,GEE CEES TRUCK STOP,"I-5, EXIT 57",1977
WI,Bloomer,44.333249,-91.690037,3.4157,KWIK TRIP #427,"US-53, EXIT 110 & SR-40",1983
WI,Camp Douglas,42.956778,-91.390037,3.154,Camp Douglas BP,"I-90 & I-94, EXIT 55",1985
WI,Marinette,45.050896,-90.525332,3.399,RIVER CITY TRAVEL PLAZA,US-41,2000
WI,Superior,42.803837,-87.790037,3.339,KWIK TRIP #222,US-53/US-2,2002
WI,Sheboygan,42.803837,-89.466508,3.2907,KWIK TRIP #139,"I-43, EXIT 120 & CR-V/CR-OK",2009
WV,Bruceton Mills,39.744167,-81.016218,3.499,BFS FOODS #72,"I-68, EXIT 23 & SR-26",2020
WV,Huntington,37.861814,-79.286806,3.499,GO MART FOOD STORE #59,"I-64, EXIT 15 & US-60",2021
WV,Ivydale,38.885344,-80.857394,3.599,GO MART FOOD STORE #86,"I-79, EXIT 40 & SR-16",2022
WY,Mills,42.432437,-109.481902,3.169,HOMAX SERVICE,"I-25, EXIT 188",2029
WY,Casper,42.938319,-106.25249,3.429,GHOST TOWN FUEL STOP,US-26/US-20,2030
WY,Cheyenne,41.432437,-106.305431,3.699,TA CHEYENNE TRAVEL CENTER,"I-80, EXIT 377 & SR-217/CR-140",2034
WY,Douglas,43.738319,-106.464255,3.499,Fast Stop Travel Centers #1133,"I-25, EXIT 126 & US-18/20",2040
WY,Pine Bluffs,43.444201,-105.158372,3.699,PINE BLUFFS SINCLAIR,"I-80, EXIT 401 & US-30",2041
WY,Wamsutter,43.020672,-107.646608,3.499,One9 #1251,"I-80, EXIT 173",2044
TX,San Antonio,29.4241,-98.4936,3.059,STRIPES #40522,"I-10, EXIT 550",2074
TX,Seymour,29.754487,-96.76052,3.299,ALLSUPS CONVENIENCE STORE #2159,US-283 BUS/US-277 BUS & SR-422,2076
TX,Slaton,31.719193,-97.131108,2.969,ALLSUPS CONVENIENCE STORE #2366,US-84 & CR-3300,2078
TX,Wickett,31.813311,-96.03699,2.879,Main Street Market #112,"I-20, EXIT 73",2084
UT,Logan,41.250032,-110.635963,3.4257,LWS TRUCK STOP,SR-30,2087
UT,Richfield,40.661797,-111.006552,3.699,FLYING J TRAVEL PLAZA #773,"I-70, EXIT 40",2088
UT,Snowville,40.791208,-111.165375,3.749,FLYING J TRAVEL PLAZA #774,"I-84, EXIT 7",2089
WI,Reedsburg,44.227367,-89.907684,3.194,KWIK TRIP #838,SR-23/SR-33,2115
WY,Laramie,41.3114,-105.5911,3.249,BIG D #44,"I-80, EXIT 311 & SR-130",2125
MD,Thurmont,40.093358,-78.893277,4.099,Mountain View Truck Stop,US-15,2144
MN,Fairmont,45.417983,-95.44431,3.299,SPEEDWAY #4709,"I-90, EXIT 102",2152
MN,Saint Cloud,46.93563,-94.756074,3.2873,PILOT TRAVEL CENTERS #134,"I-94, EXIT 171 (CR 75)",2167
VA,Raphine,39.222278,-80.384674,3.659,PILOT TRAVEL CENTER #4649,"I-64 & I-81, EXIT 205",2182
WV,Mount Nebo,39.82652,-79.975041,3.599,GO MART FOOD STORE #51,US-19/SR-129,2192
OH,Jackson,32.2988,-90.1848,3.799,A AND A TRUCKSTOP,US-35 & CR-41,2194
OH,Ravenna,41.582901,-83.338444,3.3157,Certified Oil #400410,I-76 EXIT 43,2196
AL,Lynn,32.1302,-84.594071,3.6823,NATURAL BRIDGE SHELL,US-278 & SR-5,2204
AR,North Little Rock,35.281469,-93.564299,3.0323,Roadrunner #471,"I-40/US-65, EXIT 142 & SR-365",2209
GA,Braselton,34.470031,-82.681309,3.2723,PILOT TRAVEL CENTER #66,"I-85, EXIT 129",2219
GA,Register,33.446501,-84.23425,3.2323,PO JOS GAS N GO,"I-16 SR-404, EXIT 116 & US-301/SR-73",2223
IL,Naperville,38.861222,-90.089078,3.329,SPEEDWAY #7448,SR-59,2227
MO,Saint Louis,38.627,-90.1994,2.899,QUIKTRIP #605,"I-270, EXIT 33",2231
OH,Millbury,39.135842,-81.785503,3.4923,S&G #36,"I-280, EXIT 2 & SR-795",2255
TN,Cross Plains,37.083139,-86.895286,2.949,Circle K #4703917,"I-65, EXIT 112 & SR-25",2267
FL,Bartow,26.807455,-83.919136,3.5223,CIRCLE K #2707321,SR-60,2283
PA,Bedford,41.078987,-77.059755,4.099,SAC SHOP #511,"I-76/I-70, EXIT 146 & I-99/US-220 EXIT 1",2287
SC,Rock Hill,35.133363,-81.995007,3.079,SCOTCHMAN #3894,"I-77, EXIT 73 & SR-901",2306
TN,Chattanooga,35.0456,-85.3097,2.889,MAPCO #3686,"I-24, EXIT 175",2310
TN,Christiana,35.918433,-87.265874,3.1323,SHELL,"I-24 & EPPS MILL RD, EXIT 89",2311
VA,Portsmouth,37.175219,-76.678792,3.499,PINNERS POINT,SR-135,2331
VA,Wytheville,36.9484,-81.0848,3.549,FLYING J TRAVEL PLAZA #754,"I-77 & I-81, EXIT 77",2336
WI,Prentice,43.109719,-87.631214,3.039,RSTORE #4478,SR-8 & SR-13,2340
TX,Royse City,31.989781,-97.678167,2.899,PWI #106,"I-30, EXIT 77B",2557
OH,Franklin,40.418195,-82.932562,3.3523,PILOT TRAVEL CENTERS #9,"I-75, EXIT 36",2602
WI,Janesville,44.897955,-89.39592,3.299,TA JANESVILLE TRAVEL CENTER,"I-90/I-39, EXIT 171B & US-14",2623
WY,Rawlins,41.7911,-107.2387,3.319,WEST END SINCLAIR,"I-80, EXIT 211",2626
NJ,Penns Grove,39.234198,-74.088658,3.989,PILOT TRAVEL CENTERS #253,"I-295 & NJ TRNPK,  EXIT 2B",2629
OR,Aurora,39.7294,-104.8319,3.859,FLYING J #584,"I-5, EXIT 278",2635
WY,Riverton,43.997142,-108.246608,4.399,PIT STOP TRAVEL CENTER,US-789,2638
IL,Nashville,36.1627,-86.7816,3.349,LITTLE NASHVILLE,"I-64, EXIT 50 & SR-127",2640
CO,Erie,37.677458,-103.219928,3.499,FREDERICKS TRAVEL CENTER,"I-25/US-87, EXIT 235 & SR-52",2644
WV,Mineral Wells,39.532402,-81.633865,3.499,PAR MAR FOOD STORE #89,"I-77/SR-2, EXIT 170 & SR-14 E",2756
KS,Hanover,38.214835,-94.51178,2.9557,PONY EXPRESS SERVICE CENTER,US-36 & SR-148,2761
OK,Hooker,36.15946,-97.255388,3.5623,LOVES TRAVEL STOP #046,US-64/54 & SR-94,2764
CO,Lamar,38.830399,-106.855222,3.4623,LOVES TRAVEL STOP #023,US-50 & US-287,2765
IN,Fremont,37.5483,-121.9886,3.899,PILOT TRAVEL CENTERS #29,"I- 80, EXIT 144; I-69, EXIT 357",2772
ID,Heyburn,44.269871,-116.305299,3.5607,Stinker #121,I-84 & EXIT 208,2779
VT,Wells River,42.769405,-74.960686,3.569,JIFFY MART #451,"I-91, EXIT 17 & SR-302",2788
ID,Downey,42.834577,-112.93471,3.799,Fast Stop Travel Centers #1145,"I-15,  EXIT 31",2805
TN,Clarksville,36.5298,-87.3595,3.3073,SUDDEN SERVICE #25,"I-24, EXIT 11",2807
NY,Weedsport,42.759844,-76.015698,3.899,KWIK FILL #22,"I-90, EXIT 40 & SR-34/SR-31",2811
WA,Chehalis,47.218549,-119.593435,4.299,Chevron #382354,"I-5/US-12, EXIT 72",2817
AZ,Tonopah,33.759171,-112.798868,3.939,TA TONOPAH TRAVEL CENTER,"I-10, EXIT 103",2848
AZ,Yuma,32.653288,-113.645927,3.479,SPEEDWAY #2958,"I-8, EXIT 12",2851
LA,Tallulah,30.564078,-93.411923,3.209,TA TALLULAH TRAVEL CENTER,"I-20, EXIT 171 & US-65",2862
MO,Neosho,39.156085,-92.54425,3.059,KUM & GO #0493,I-49 BUS/SR-59,2864
CO,Pueblo,38.2544,-104.6091,3.399,CIRCLE K #2744138,"I-25, EXIT 101 & US-50/SR-47",2875
FL,Ocala,28.41922,-81.872077,3.3857,PILOT TRAVEL CENTER #293,"I-75, EXIT 341 & CR-484",2883
GA,Bainbridge,33.352384,-84.640133,3.599,SP Truckstop & Travel Center,US-84/SR-38,2885
AL,Moulton,31.683142,-85.335248,3.099,MOULTON COWBOYS,SR-157,2889
NV,Sparks,37.519397,-115.299492,3.949,PETRO STOPPING CENTER #338,"I-80, EXIT 21",2891
OH,New Philadelphia,38.935842,-84.644327,3.3157,EAGLE TRUCK STOP,I-77 EXIT 81,2895
ID,Lewiston,45.340459,-114.928828,3.669,NORTH LEWISTON DYNAMART,US-12 & SR 128,2896
WY,Lyman,41.29126,-107.028961,3.4657,GAS N GO #15,"I-80, EXIT 41",2897
ND,Fargo,47.793618,-98.310483,3.569,FLYING J TRAVEL PLAZA #685,"I-29 & I- 94, EXIT 349",2910
TN,Dandridge,37.23608,-84.512933,3.259,ONE9#226,"I-40, EXIT 417 & SR-92",2913
ID,Fort Hall,44.8934,-114.240593,3.519,TP TRUCK STOP,"I-15, EXIT 80",2915
VA,Rustburg,37.669337,-76.184674,3.519,GOLDYS TRUCK PLAZA,US-29,2917
NM,Albuquerque,35.0844,-106.6504,3.5207,LOVES TRAVEL STOP #210,"I-40, EXIT 158",2922
VA,Ruther Glen,37.9315,-77.4885,3.6,LOVES TRAVEL STOP #435,"I-95, EXIT 104 & SR-207",2923
TX,Jasper,30.483899,-98.948755,3.1323,HWY 190 FUEL STOP,US-190,2924
PA,Harrisburg,41.243693,-76.812696,3.499,EXIT 77 TRAVEL PLAZA,"I-81, EXIT 77 & SR-39",2926
ND,Steele,46.311265,-101.363424,3.599,TA EXPRESS STEELE,"I-94, EXIT 200 & SR- 3",2929
FL,Jacksonville,30.3322,-81.6557,3.299,CIRCLE K #2726163,"I-295, EXIT 22",2935
KY,Walton,38.56814,-84.096538,3.0857,FLYING J TRAVEL PLAZA #664,"I-75, EXIT 171",2937
NC,Charlotte,35.2271,-80.8431,3.5523,PILOT TRAVEL CENTERS #275,"I-85, EXIT 39 I-77, EXIT 13",2956
ND,Jamestown,46.4995,-101.398718,3.629,SUPERPUMPER #26,"I-94, EXIT 258 & US-281",2963
OH,Perrysburg,41.5578,-83.6274,3.7857,PETRO STOPPING CENTER #317,"I-57, EXIT 71",2967
LA,Monroe,30.517019,-91.753099,3.129,E-Z MART #4460,"I-20,  EXIT 124",2968
SD,Kadoka,43.8372,-101.4998,3.229,DISCOUNT FUEL,"I-90, EXIT 150 & SR-73",2977
AL,Knoxville,35.9606,-83.9207,3.089,CIRCLE K #2723726,"I-59/I-20, EXIT 52 & US-11/US-43/SR-7",2982
LA,Delta,29.705254,-92.158981,2.994,CHEVRON,"I-20, EXIT 186",3003
FL,Live Oak,27.866279,-81.942665,3.779,BUSY BEE,"I-10, EXIT 283 & US-129",3008
PA,Greencastle,40.514281,-75.065637,3.959,TA GREENCASTLE TRAVEL CENTER,"I-81, EXIT 5",3022
MO,Cardwell,37.038438,-92.226603,3.199,Mr Ts Riverside,US-412,3030
CO,Lamar,38.830399,-106.855222,3.399,PORTS TO PLAINS TRAVEL PLAZA,US-50 & US-287,3064
VA,Madison Heights,37.869337,-79.484674,3.4957,SPEEDWAY #4638,US-29,3086
WI,Merrill,44.615602,-90.313567,3.2407,RSTORE #4488,US-51,3093
AL,Dothan,31.847847,-84.735248,3.959,HOBO PANTRY #6,US-431/SR-210,3096
NY,Champlain,42.30102,-73.333345,3.799,MOBIL,"I-87, EXIT 42 & US-11",3118
GA,Jackson,32.2988,-90.1848,3.334,TA ATLANTA SOUTH TRAVEL CENTER,"I-75, EXIT 201 & SR-36",3128
CO,Grand Junction,39.0639,-108.5506,4.049,TA EXPRESS #6264,"I-70, EXIT 26 & US-50",3138
OK,Calumet,35.041813,-95.667152,3.1057,CHEROKEE TRAVEL MART,"I-40,  EXIT 108",3139
MO,Neosho,39.156085,-92.54425,3.059,YESWAY #1038,US-60 & SR-86,3148
AL,Tuscumbia,34.177259,-88.370542,3.0073,QUIK MART #18,US-72/SR-157,3155
OK,Tulsa,34.441813,-97.06127,3.039,QUIKTRIP #71,"I-44, EXIT 238",3163
OK,Tulsa,34.441813,-97.06127,3.039,QUIKTRIP #102,"I-44, EXIT 222A",3164
OK,Tonkawa,35.394754,-98.931858,3.584,LOVES TRAVEL STOP #213,"I-35, EXIT 211",3165
AL,Jasper,31.671377,-87.117601,3.229,JASPER FOOD MART,US-78,3167
TN,Cookeville,34.600786,-85.85411,3.084,One9 #265,"I-40, EXIT 287 & SR-136",3171
IN,New Paris,40.137661,-87.167102,3.6573,BP,US-6 & SR-15,3176
WA,Kent,48.430314,-119.275788,4.599,ERNIES FUEL STOP #1605,SR-167,3178
IN,Lake Station,41.5742,-87.252,3.5657,MR FUEL #1020,"I-80 & I-94, EXIT 15B",3179
TN,Manchester,36.871374,-84.742345,3.049,BUSY CORNER TRUCK STOP AND MARKET,"I-24, EXIT 105 & US-41/SR-2",3191
SD,Colman,45.423311,-101.230004,3.159,CROSSROADS TRUCK STOP STATION,"I-29 & SR 34, MM 109",3205
MN,Perham,44.429748,-95.814898,3.499,PERHAM OASIS,US-10 & SR-78,3206
FL,Polk City,27.913338,-80.177959,3.449,SHELL TRUCKSTOP,"I-4, EXIT 44",3215
KY,Oak Grove,37.391669,-86.478891,3.0423,MAXS #124,"I-24, EXIT 86 & US-41",3216
AR,Bald Knob,33.575586,-92.452535,3.395,Pilot #1440,"US-67, EXIT 55 & US-64/US-167 & SR-367",3221
FL,Pompano Beach,28.725103,-79.613254,3.759,POMPANO TRUCK STOP,"I-95, EXIT 36B",3222
PA,Harrisburg,41.243693,-76.812696,3.609,ONE9 #245,"I-81, EXIT 77 & SR-39",3226
SC,Summerville,33.874539,-81.342066,3.219,ONE9 MR FUEL #64,"I-26 & US-17, EXIT 199",3227
TX,Falfurrias,31.648605,-97.784049,3.299,STRIPES #40815,US-281 & US-285,3230
AR,Earle,33.481469,-91.04077,3.3673,TA WEST MEMPHIS TRAVEL CENTER,"I-40/US-63, EXIT 260 & SR-149",3264
WY,Lusk,43.31479,-105.864255,3.689,OUTPOST TRUCK STOP,US-85 & US-18/US-20,3280
PA,Milton,39.843693,-78.789167,3.799,AMERICAN TRUCK PLAZA,I-80 EXIT 215 & SR-254,3281
MO,Lamar,38.720791,-90.056015,3.199,CASEYS #4390,"I-49/US-71, EXIT 77 & US-160",3284
WY,Cheyenne,41.432437,-106.305431,3.7007,SAPP BROS TRAVEL CENTER,"I-80, EXIT 370",3297
AR,North Little Rock,35.281469,-93.564299,3.249,TRUCKOMAT OF N LITTLE ROCK,"I-40, EXIT 161 & SR-391",3316
NY,Central Square,42.265726,-74.374522,4.299,MIRABITO #61,"I-81, EXIT 32",3326
NH,Greenland,44.081904,-71.255072,3.759,TA # 211 GREENLAND TRAVEL CENTER,"I-95, EXIT 3A & US-101",3330
MS,Meridian,33.488705,-90.605167,2.939,QUEEN CITY TRUCK STOP,"I-20 & I-59, EXIT150",3349
OK,Oklahoma City,35.4676,-97.5164,2.879,E-Express at Central Truck Stop,"I-35, EXIT 137",3383
CO,Longmont,40.1672,-105.1019,3.239,LONGMONT TRUCK STOP,"I-25/US-87, EXIT 240 & SR-119",3386
SC,Winnsboro,34.721598,-81.924419,3.0907,POPS Mart #333,"I-77, EXIT 48 & SR-200",3401
LA,Winnfield,30.834666,-92.158981,3.319,COUNTRY GIRL TRUCK STOP,US-167 & SR-156,3413
GA,Metter,33.411207,-84.675427,3.249,JAYS EL CHEAPO FUEL STOP,"I-16, EXIT 104",3415
WV,Jane Lew,37.967697,-80.645629,3.999,Par Mar Store #164,"I-79, EXIT 105 & CR-7",3418
WA,Federal Way,46.030314,-119.752259,4.599,ERNIES TRUCK STOP,"I-5, EXIT 142",3421
TX,Seguin,29.5688,-97.9647,2.889,PWI #167,"I-10, EXIT 601",3422
IN,Fremont,37.5483,-121.9886,3.699,JOHNNYS MARKET,"I-69, EXIT 357",3427
IN,Remington,41.220014,-86.143572,3.684,PILOT TRAVEL CENTER #34,"I-65, EXIT 201 & US-231",3432
TX,Georgetown,31.366252,-98.842873,2.799,PWI #168,"I-35, EXIT 266 & SR-195",3435
FL,Orlando,28.5383,-81.3792,3.449,Acme Truck Stop,US-441/SR-500,3444
IA,Algona,41.217421,-91.772291,3.499,CHROME TRUCK STOP,US-18 & US-169,3460
ID,Boise,43.615,-116.2023,3.379,BOISE PETROLEUM LLC,"I-84,  EXIT 71",3464
GA,Savannah,32.411207,-84.040133,3.1257,MR FUEL DBA ONE9 #72,"I-16, EXIT 160",3471
NC,Kannapolis,35.424184,-79.338772,3.499,PILOT TRAVEL CENTERS #56,"I-85, EXIT 63",3475
VT,Springfield,39.7817,-89.6501,3.699,CIRCLE K #4707404,"I-91, EXIT 7",3477
GA,Perry,33.799443,-81.569545,3.099,FAST MARKET #4550,"I-75/SR-401, EXIT 136 & US-341",3479
GA,Cartersville,32.611207,-82.063662,3.0857,CIRCLE K #2723675,"I-75, EXIT 290 & SR-20",3493
TX,Orange,31.142722,-98.26052,3.309,PILOT TRAVEL CENTERS #431,"I-10, EXIT 873",3519
TX,Livingston,31.119193,-96.019343,2.859,SUNMART #308,US-59,3522
OH,Anna,39.00643,-83.673739,3.064,JOE STOP 99,"I-75, EXIT 99 & SR-119",3526
IA,Jefferson,40.652715,-93.236997,3.2323,SPARKYS ONE STOP #22,"I-35, EXIT 111B & US-30",3530
TX,Amarillo,32.119193,-99.566402,3.279,PETRO STOPPING CENTER #307,I-40 EAST & S LAKESIDE Dr,3536
TX,Seguin,29.5688,-97.9647,3.099,Bigs 211,"I-10, EXIT 620 & SR-123",3539
MN,South Saint Paul,47.017983,-94.050192,3.499,STOCKMENS TRUCK PLAZA,"I-494, EXIT 64A",3545
WY,Sinclair,43.408907,-108.281902,3.759,STINKER I 80 TRAVEL PLAZA,"I-80, EXIT 221 & SR-76",3580
NV,Lovelock,39.02528,-116.517139,3.499,CHEVRON,"I-80, EXIT 129",3585
TX,Winnie,29.8238,-94.383,2.999,BINGO TRUCK STOP,"I-10, EXIT 829 & SR-124",3588
WY,Fort Bridger,42.750084,-106.658372,3.7157,TA BRIDGER TRAVEL CENTER #188,"I-80, EXIT 30 & CR-202",3592
UT,Parowan,39.12062,-111.200669,3.7057,TA Parowan Travel Center,"I-15, EXIT 78",3593
MO,Saint Joseph,38.379614,-91.450133,3.169,SPEEDYS #6,"I-35, EXIT 33",3605
IL,Tuscola,39.33181,-87.759666,3.199,FUEL MART #787,"I-57, EXIT 212 & US-36",3608
IN,South Bend,40.561191,-84.396513,3.799,PILOT TRAVEL CENTERS #35,"I-80/90, EXIT 72 & US-31",3614
OH,Toledo,41.6639,-83.5552,3.7723,PILOT TRAVEL CENTERS #15,"I-75, EXIT 210",3616
IN,Brazil,40.314132,-87.41416,3.659,ROAD RANGER #141,"I-70, EXIT 23",3619
OH,Wilmington,40.088783,-82.279621,3.1423,One9 #16,"I-71 & US-68, EXIT 50",3620
PA,Snow Shoe,41.514281,-77.27152,3.469,SNOW SHOE TRAVEL PLAZA,"I-80, EXIT 147 & SR-144",3645
TX,Alice,29.625075,-98.278167,3.099,TIMES MARKET #299,US-281 BUS,3678
MI,New Baltimore,42.3325,-84.315507,3.569,SPEEDWAY #2314,"I-94, EXIT 243 & SR-29",3688
NC,Charlotte,35.2271,-80.8431,3.5323,CHARLOTTE TRAVEL PLAZA,"I-77,  EXIT 16B",3692
IN,Warren,40.949426,-87.131807,3.399,WARREN TRAVEL PLAZA,"I-69, EXIT 278 & SR-5",3699
NY,Hogansburg,43.665726,-75.592169,3.649,BEARS DEN TRADING POST #101,ST 37 11 MI E OF MASSENA,3702
MN,Albert Lea,43.648,-93.368,3.299,SPEEDWAY #4704,"I-90, EXIT 154",3707
SD,Chamberlain,44.999782,-100.665299,3.299,SPEEDWAY #4706,"I-90, EXIT 265",3718
PA,Loretto,41.196634,-74.959755,3.999,KEYSTONE TRUCK STOP,US-22 & SR-164,3719
PA,Cochranton,40.255458,-77.465637,3.8157,GENEVA TRUCK STOP,"I-79, EXIT 35/141",3725
NY,Albany,40.736314,-73.898051,3.799,PLAZA 23 TRUCK STOP,"I-787, EXIT 2",3728
AR,West Helena,33.752057,-91.764299,3.399,JORDAN'S KWIK STOP #70,US-49,3737
MT,Columbus,39.9612,-82.9988,3.5807,PILOT TRAVEL CENTER #906-TOWN PUMP,"I-90, EXIT 408 & SR-78",3745
AR,Newport,35.481469,-91.781947,4.1323,EXXON,US-67 & SR-18,3759
VA,Emporia,36.692866,-78.037615,3.099,SIMMONS TRAVEL CENTER,"I-95, EXIT 8 & US-301",3767
CO,Burlington,37.877458,-105.284633,3.499,Brake Time Corner Market,"I-25, EXIT 240",3772
CO,Burlington,37.877458,-105.284633,3.889,SINCLAIR,"I-70, EXIT 438",3774
CO,Crook,40.359811,-103.343457,3.3823,REATTA TRAVEL STOP,"I-76, EXIT 149 & SR-55/CR-81",3781
CO,Denver,39.7392,-104.9903,3.299,CIRCLE K #2744095,"I-25, EXIT 215",3783
MN,Jackson,32.2988,-90.1848,3.299,SPEEDWAY #4701,"I-90, EXIT 73",3794
CO,Colorado Springs,38.8339,-104.8214,3.159,FAST MARKET,"I-25, EXIT 158",3817
OK,Perry,34.771224,-97.008329,3.2157,ONCUE EXPRESS #61,"I-35, EXIT 185 & US-77",3843
DE,Greenwood,38.171464,-75.374788,3.249,SHORE STOP #279,US-13,3868
MT,Deer Lodge,47.245454,-109.033765,3.519,Fics Plaza,"I-90, EXIT 184",3888
FL,Bradenton,26.348632,-80.742665,3.439,CIRCLE K #2701686,"I-75, EXIT 220",3889
NJ,Palisades Park,39.975375,-76.276893,3.279,SUNOCO,US-46 & SR-93,3907
FL,Fort Lauderdale,26.1224,-80.1373,3.699,SEMINOLE TRUCK STOP,"I-75, EXIT 354",3908
FL,Fort Lauderdale,26.1224,-80.1373,3.6657,MICCOSUKEE SERVICE PLAZA,"I-75, EXIT 49 & SR-84",3927
TN,Lebanon,34.330198,-86.542345,2.989,Uncle Petes Truck  Stop,"I-40, EXIT 239 & US-70/SR-26",3936
MO,Moberly,37.74432,-94.538368,3.469,Fast Lane,US-24 & US-63,3946
FL,Lake City,26.548632,-80.107371,3.699,SUNSTOP #337,"I-10/SR-8, EXIT 303 & US-441",3949
FL,Lake Placid,26.61922,-80.125018,3.399,CIRCLE K #2707451,US-27/SR-25 & SR-70,3956
MI,Mattawan,42.544265,-83.821389,3.494,SPEEDWAY #6604,"I-94, EXIT 66",3964
TX,Garland,32.9126,-96.6389,2.8423,EXXON - Pilot #1293,"I-30, EXIT 61",3970
OK,Oklahoma City,35.4676,-97.5164,3.319,LOVES TRAVEL STOP #205,"I-35 & I-44, EXIT 137",3973
OK,Elk City,35.412,-99.4043,3.1257,LOVES TRAVEL STOP #201,I-40 EXIT 41,3974
FL,Macclenny,27.360397,-82.613254,3.459,SUNSTOP #334,"I-10, EXIT 335 & SR-121",3975
IN,Gary,41.137661,-84.978866,3.8307,PETRO GARY 369,"I-80 & I-94, EXIT 9",3979
AR,El Dorado,34.187351,-93.899594,3.499,MISSILE MART #1,US-167 & SR-7,4006
WI,Baldwin,43.956778,-89.254743,3.503,BALDWIN TRAVEL PLAZA,"I-94, EXIT 19 & US HWY 63",4008
SC,Anderson,34.921598,-82.824419,2.909,BP,"I-85, EXIT 21  & US-178",4025
AR,Russellville,34.352057,-90.652535,3.387,PILOT TRAVEL CENTER #430,"I-40,  EXIT 84",4035
VA,Rocky Mount,38.445808,-80.296439,3.299,DUDLEYS TRUCK STOP RESTAURANT,US-220,4062
MS,Hattiesburg,33.90047,-87.799284,2.999,STUCKEY'S,"I-59, EXIT 67 & US-49",4063
FL,Miami,25.7617,-80.1918,3.699,SHELL DBA PILOT DEALER #874,US-41,4080
OK,Pryor,36.782989,-95.349505,3.099,E-Z MART #4411,HIGHWAY 69 & COBBLESTONE DR,4101
OK,Enid,36.594754,-98.155388,3.0823,ASAP GENERAL STORE #330,US-412/SR-15,4113
GA,Atlanta,33.749,-84.388,3.3407,QUIKTRIP #707,"I-85 , EXIT 96",4115
GA,Douglas,34.505325,-81.463662,3.4407,JET FOOD STORE #82,US-441 & CR-13,4119
TX,San Antonio,29.4241,-98.4936,3.2073,PETRO STOPPING CENTER #305,"I-10, EXIT 582",4156
GA,Midway,33.622972,-85.504839,3.5257,EL CHEAPO,I-95 & EXIT 76,4161
GA,Thomasville,31.775913,-82.451898,3.2357,CIRCLE K #2723897,"I-75, EXIT 138",4164
AZ,Kingman,35.1895,-114.053,3.899,TA KINGMAN TRAVEL CENTER,"I-40, EXIT 48 & US-93",4169
MN,Bemidji,45.665042,-95.603133,3.499,PETRO SERVE USA #11,US-2 & US-71,4171
ID,Post Falls,42.905165,-115.087652,3.7623,FLYING J TRAVEL PLAZA #639,"I-90, EXIT 2",4172
GA,Port Wentworth,33.364148,-83.140133,3.099,CIRCLE K #2705352,"I-95/SR-405, EXIT 109 & SR-30/SR-21",4179
GA,Resaca,32.034737,-84.940133,3.2957,FLYING J TRAVEL PLAZA #632,"I-75, EXIT 320",4187
TX,Grand Prairie,31.389781,-97.395814,3.599,TIGER MART #63,"I-20, EXIT 454",4193
KS,Bunker Hill,38.367776,-95.200015,2.959,PWI #574,"I-70, EXIT 193/US-40",4199
GA,Rising Fawn,31.870031,-83.616603,3.839,PILOT TRAVEL CENTERS #415,"I-59, EXIT 4",4204
NV,Jean,38.695868,-117.611256,3.7323,FLYING J #513,"I-15, EXIT 1",4211
IN,Lawrenceburg,39.98472,-85.508278,3.424,KENNETT TRUCK STOP,"I-275, EXIT 16",4220
TN,Pleasant View,34.753727,-84.742345,2.899,Circle K #4703906,"I-24, EXIT 24 & SR-49",4222
NY,Corfu,41.52455,-74.515698,3.874,TA PEMBROKE TRAVEL CENTER,"I-90, EXIT 48A",4223
OK,Oklahoma City,35.4676,-97.5164,3.3557,LOVES TRAVEL STOP #203,"I-40, EXIT 140",4227
LA,Shreveport,32.5252,-93.7502,2.8923,QUIKTRIP #7220,"I-20, EXIT 8",4233
KY,Winchester,38.909316,-85.225949,2.9223,SPEEDWAY #8256,"I-64, EXIT 94 & SR-1958 & US-60",4239
GA,Conley,34.481795,-81.693074,3.999,EXXON,"I-285, EXIT 53",4241
PA,Gap,40.008399,-77.465637,3.799,CONOCO,US-30 & SR-41,4267
IA,Colfax,43.182127,-93.254644,3.0823,KUM & GO #0032,"I-80/US-6, EXIT 155 & SR-117",4292
ND,Dickinson,46.8792,-102.7896,3.5157,TIGER DISCOUNT TRUCKSTOP,"I-94, EXIT 64 & I-94 BUS",4301
AL,Hope Hull,31.836083,-85.705836,3.139,Saveway Truck Plaza,"I-65, EXIT 164 & US-31",4311
IA,Dubuque,41.123304,-91.931114,3.559,KWIK STOP C STORES,US-61/US-151,4331
IL,Gilman,40.378869,-90.724372,3.464,PILOT TRAVEL CENTER #468,"I-57, EXIT 283 & US-24",4332
IA,Peosta,40.982127,-92.742879,3.489,HIGHWAY 20  AUTO TRUCK PLAZA,US-20,4335
TX,Combes,31.03684,-95.984049,3.049,ROAD RANGER #273,I-69E/US-77 & SR-107,4339
IA,Evansdale,42.182127,-94.736997,3.729,ROAD RANGER #144,"I-380, EXIT 68US-20, EXIT 68",4349
GA,Richmond Hill,34.481795,-84.53425,3.0957,EL CHEAPO #4,"I-95, EXIT 87",4363
MO,Bois D Arc,39.76785,-94.485427,3.074,HOODS SERVICE CENTER,"I-44, EXIT 61",4368
GA,Pulaski,32.022972,-83.016603,3.4657,GRADYS TRUCKSTOP,"I-16, EXIT 111",4372
IA,New Virginia,41.08801,-93.113467,3.114,KUM & GO #0043,"I-35, EXIT 43 & SR-207/CRG76",4373
IA,Missouri Valley,40.829186,-93.131114,3.399,TAYLOR QUIK-PIK,"I-29, EXIT 75 & US-30",4389
MO,Sikeston,38.956085,-93.550133,3.499,BREAK TIME #3147,"I-55, EXIT 67 & US-62",4395
NM,Moriarty,34.9898,-106.0492,3.2173,TA MORIARITY TRAVEL CENTER,"I-40, EXIT 194",4417
MO,Bethany,38.34432,-91.785427,3.0607,CASEYS #3081,"I-35, EXIT 92 & US-136",4419
IA,Stuart,42.382127,-92.636997,3.099,CASEYS #2654,"I-80/US-6, EXIT 93 & CR-P28",4427
IA,Toledo,41.6639,-83.5552,3.349,CASEYS #2653,"US-63 & US-30, EXIT 202",4431
IA,Underwood,41.68801,-94.878173,3.0007,UNDERWOOD TRUCK STOP I 80,"I-80, EXIT 17",4437
TN,Greeneville,36.283139,-84.565874,3.5623,PILOT TRAVEL CENTERS #51,"I-81 BAILEYTON RD, EXIT 36",4441
NC,Delco,36.553595,-81.474066,3.5073,Minuteman Food Mart #58,US-74/US-76,4442
MN,Rogers,45.712101,-93.467839,3.274,TA Rogers,"I-94/US-52, EXIT 207 & SR-101",4445
TX,Amarillo,32.119193,-99.566402,3.209,LOVES TRAVEL STOP #200,I-40 EXIT 74,4446
SD,Colman,45.423311,-101.230004,3.099,PRAIRIE JUNCTION TRUCK STOP,"I-29, EXIT 109 & SR-34",4451
IA,Waterloo,42.629186,-94.59582,3.499,CASEYS #2867,US-63 & US-20,4452
IA,Williamsburg,41.429186,-92.689938,3.1307,KUM & GO #1443,"I-80, EXIT 216",4458
KY,Glencoe,38.532846,-85.878891,3.1657,EXIT 62 TRUCKSTOP,"I-71, EXIT 62 & US-127",4460
TX,Lindale,31.189781,-96.76052,2.8073,QUIKTRIP #7901,"I-20, EXIT 556 & US-69",4463
ID,Boise,43.615,-116.2023,3.7873,FLYING J TRAVEL PLAZA #777,"I-84, EXIT 54(FEDERAL WAY)",4482
ID,Bonners Ferry,43.034577,-116.428828,3.734,3 MILE CORNER TRUCK STOP,US-2 & US-95,4492
ID,Lewiston,45.340459,-114.928828,3.6973,STINKER #42,US-12/US-95 & SR-128,4525
WA,Wenatchee,46.983255,-120.58167,4.1357,WENATCHEE VALLEY TRUCK STOP,US-97 ALT,4528
AL,Birmingham,33.5186,-86.8104,2.9757,SPEEDWAY #1449,"I-65, EXIT 262B",4533
VA,Virginia Beach,36.8529,-75.978,3.489,BIG CHARLIES TRUCK PLAZA,"I-64, EXIT 282 & US-13",4544
TN,Cornersville,36.777257,-86.259992,3.799,PILOT TRAVEL CENTERS #406,"I-65, EXIT 22 & US-31A/SR-11",4555
UT,Plymouth,40.508856,-113.971258,3.5823,FAST STOP TRAVEL CENTERS #1109,"I-15, EXIT 392",4560
IL,Bloomington,40.590633,-86.824372,3.499,PILOT TRAVEL CENTERS #299,"I-55/I-74/US-51, EXIT 160 & US-150/SR-9",4563
NY,Fultonville,43.512785,-74.427463,3.179,ONVO TRAVEL PLAZA,"I-90, EXIT 28",4568
IL,Metropolis,40.872986,-89.453784,3.599,METROPOLIS TRUCK STOP,"I-24, EXIT 37 & US-45",4569
IL,Mahomet,41.214163,-87.636137,3.669,Circle K #4701432,"I-74, EXIT 174",4574
MN,Fergus Falls,44.476807,-93.891368,3.2357,BIG CHIEF TRUCK STOP,"I-94/US-52, EXIT 61 & US-59/CR-82",4582
VA,Emporia,36.692866,-78.037615,3.799,PILOT DEALER #898 SADLERS TRUCK STOP,"I-95, EXIT 11B & US-58",4605
LA,Greenwood,31.658195,-90.041334,2.899,OUTPOST TRAVEL CENTER,"I-20, EXIT 5 & US-80",4618
FL,Wildwood,28.348632,-81.995607,3.2723,PILOT TRAVEL CENTERS #95,"I-75, EXIT 329 & SR-44",4620
VA,Lexington,38.0406,-84.5037,3.659,TA LEE HI TRAVEL PLAZA,"I-81,  EXIT 195",4622
VA,Warrenton,37.081102,-76.572909,3.3223,QUARLES #4601,US-29/US-17/US-15,4628
IL,Lincoln,40.8136,-96.7026,3.449,THORNTONS #369 DBA PILOT TRAVEL CENTER #514,"I-55, EXIT 126 & SR-10",4637
IL,Marshall,32.5449,-94.3674,3.299,MARSHAL JUNCTION,"I-70, EXIT 147 & SR-1",4642
IL,Mokena,39.072986,-90.124372,3.369,CIRCLE K #4706703,"I-80, EXIT 145A",4644
NY,Bergen,42.089255,-75.239227,4.029,7-ELEVEN #35087,"I-490, EXIT 2 & SR-33 & SR-19",4654
NY,Belmont,42.277491,-73.439227,3.999,QUICKLEES TRAVEL CENTER,"I-86, EXIT 30 & CR-20",4655
TX,Aledo,31.672134,-98.031108,2.799,PWI #401,"I-20 & I-30, EXIT 1B",4690
WY,Laramie,41.3114,-105.5911,3.079,A C TRUCKSTOP,"I-80, EXIT 290",4700
MD,Accident,39.634534,-75.346219,4.199,THE RIDGE,"I-68/US-219, EXIT 14 & US-40",4704
PA,Smithton,41.090752,-75.506814,3.899,SMITHTON TRUCKSTOP,"I-70, EXIT 39 & SR-3059",4707
IN,Straughn,39.40825,-86.090631,3.859,MINIT MART #600244,"I-70, EXIT 131",4729
ND,Beach,47.12303,-97.834012,3.9657,FLYING J TRAVEL PLAZA #684,"I-94, EXIT 1 & SR-16",4742
IA,West Liberty,43.476245,-91.172291,2.9873,BROOKE TRAVEL PLAZA,"I-80, EXIT 259",4750
MI,Monroe,43.014853,-83.486095,3.3165,TA MONROE TRAVEL CENTER,"I-75, EXIT 15",4762
TX,Weatherford,31.072134,-96.672285,2.9173,TRACK AND TRAVEL,"I-20, EXIT 406",4806
ID,Mountain Home,43.133,-115.6938,3.779,PILOT TRAVEL CENTER #350,"I-84 & US-20, EXIT 95",4818
CO,Trinidad,40.18334,-107.137575,3.399,Alta Convenience #6333,"I-25, EXIT 11",4819
AL,Lincoln,40.8136,-96.7026,2.999,I-20 Truck Stop,"I-20, EXIT 165",4826
TX,Beaumont,30.0802,-94.1266,3.3307,PETRO BEAUMONT #304,"I-10, EXIT 848",4827
MN,Motley,46.229748,-95.126663,3.399,SHELL,US-10 & SR-210,4837
MT,Three Forks,46.327807,-111.751412,3.5973,PILOT TRAVEL CENTER #910- TOWN PUMP,"I-90, EXIT 274 & US-287",4856
KS,Newton,37.814835,-96.170604,3.3602,PILOT TRAVEL CENTER #1346,"I-135, EXIT 31",4858
IL,Woodhull,40.190633,-87.583196,3.899,PILOT TRAVEL CENTER #476,"I-74, EXIT 32 & SR-17",4860
GA,Commerce,33.164148,-85.13425,3.2157,TA COMMERCE TRAVEL CENTER,"I-85, EXIT 149 & US-441",4872
TX,Odessa,31.919193,-97.042873,3.049,PWI #110,"I-20, EXIT 112 & FM-1936",4874
ID,Nampa,43.5407,-116.5635,3.374,SHELL DBA ONE9 #1426,"I-84, EXIT 35",4878
NJ,Bordentown,40.187139,-74.459246,4.029,PETRO STOPPING CENTER #14,"I-295, EXIT 56",4881
IL,Greenville,40.53181,-90.265549,3.709,LOVES TRAVEL STOP #384,"I-70, EXIT 45",4885
OH,Wauseon,41.124077,-80.550209,3.699,SUNOCO,"I-80 & I-90, EXIT 3",4887
IN,Cloverdale,40.349426,-87.961219,3.699,CLOVERDALE TRAVEL PLAZA,"I-70, EXIT 41 & US-231",4894
OH,Sandusky,41.277018,-84.256091,3.5323,HY-MILER #2204,SR-250,4905
FL,Ocala,28.41922,-81.872077,3.459,CIRCLE K #2723916,US-441/US-301/US/27/SR-500,4909
UT,Green River,41.5272,-109.466,3.6857,PILOT TRAVEL CENTER #892,"I-70 EXIT 164, & US-50",4910
TN,Knoxville,35.9606,-83.9207,3.699,PILOT TRAVEL CENTERS #219,"I-40, EXIT 398",4918
LA,La Place,29.66996,-90.447217,3.2273,TA LAPLACE,"I-10, EXIT 209 & US-5",4920
KY,Corbin,36.9489,-84.0966,3.609,PILOT TRAVEL CENTERS #231,"I-75, EXIT 29",4921
AL,Clanton,32.95373,-87.54113,3.2073,CIRCLE K #2704886,"I-65, EXIT 205 & US-31/SR-22",4927
VA,Rural Retreat,36.845808,-76.943497,3.299,VILLAGE TRUCK STOP,"I-81, EXIT 18",4933
WI,Wisconsin Rapids,42.862661,-91.478273,3.2623,KWIK TRIP #331,SR-54,4977
MI,Marshall,32.5449,-94.3674,3.499,JOHNNYS MARKET,"I-94, EXIT 110 & US-27",4981
WI,Wilson,43.48619,-88.97239,3.549,KWIK TRIP #603,"I-94, EXIT 28 & SR-128",4983
MT,Billings,45.7833,-108.5007,3.5907,ZIP TRIP #54,"I-90, EXIT 452",4996
MD,Centreville,38.011005,-75.028572,3.259,TRAILWAY TRUCK STOP,US-301/SR-304,5003
NJ,Linden,38.975375,-73.859246,3.799,SUNOCO,US-1/US-9,5006
MO,Pevely,37.826673,-92.526603,2.9907,I 55 MOTOR PLAZA,"I-55,  EXIT 180",5024
IA,Ottumwa,43.393892,-92.31935,3.399,YESWAY #1030,US-63 & E MARY ST,5030
MO,Mount Vernon,39.332556,-93.920721,3.409,TA MOUNT VERNON TRAVEL CENTER,"I-44, EXIT 46 & SR-39/SR265",5044
MO,Rock Port,40.4117,-95.5133,3.099,ROCK PORT TRUCK PLAZA,"I-29 & US-136, EXIT 110",5050
MO,Winston,37.661967,-90.761897,3.119,TREX MART #16,"I-35, EXIT, 61 & US-69",5056
MO,Cameron,38.932556,-92.191309,3.099,PHILLIPS 66,"I-35, EXIT 54 & I-35 BUS/US-36",5057
AZ,Kingman,35.1895,-114.053,3.539,CRAZY FREDS TRUCK SHOP,"I-40, EXIT 44 & US-66",5060
MS,Laurel,34.006352,-88.752225,2.879,CLARK OIL #44,"I-59, EXIT 97",5064
MO,Taylor,39.497261,-90.408956,3.0157,FASTLANE TAYLOR 63,US-61 & SR-6,5079
WV,Fairmont,39.214755,-80.980924,3.399,K AN T TRUCKSTOP,"I-79, EXIT 137 & SR-310",5085
MS,Hattiesburg,33.90047,-87.799284,3.149,CIRCLE K #2723385,"I-59, EXIT 67 & US-49/SR-42",5111
IN,Whitestown,39.443544,-88.43769,3.2923,CIRCLE K #4702361,"I-65, EXIT 130 & SR-334",5117
IA,Williamsburg,41.429186,-92.689938,3.1423,CASEYS #2769,"I-80, EXIT 220 & SR-149",5128
MO,Rock Port,40.4117,-95.5133,3.4057,TRAILS END TRUCK STOP,"I-29, EXIT 110 & US-136",5131
MO,Cuba,37.814909,-92.738368,3.2657,Travel Centers of America,"I-44, EXIT 208 & SR-19",5132
OH,Quaker City,40.135842,-84.591386,3.1657,FUEL MART #727,"I-70, EXIT 193",5160
MS,Belden,33.382822,-91.505167,2.939,Blue Sky #733,"US-78, EXIT 81 & SR-178",5163
KY,Franklin,37.344611,-82.649479,3.0857,ONE9 #046,"I-65, EXIT 6 & SR-100",5165
IN,Hobart,38.38472,-86.531807,3.6323,SPEEDWAY #7575,"I-65, EXIT 255",5167
PA,Breezewood,39.9959,-78.2378,5.099,FLYING J #516,"I-76, EXIT 161 & I-70",5170
NC,Kenly,35.212419,-81.050537,3.709,PETRO STOPPING CENTER #74,I-95 & EXIT 106,5183
WI,Poynette,44.745014,-89.148861,3.1723,NORTH POINT PLAZA,"I-90 & I-94, EXIT 115",5191
ID,Montpelier,44.011047,-115.03471,3.699,Chevron #306185,US-30,5202
AL,Robertsdale,31.659612,-87.452895,3.469,OASIS TRAVEL CENTER,"I-10, EXIT 53",5203
KS,Oakley,39.332482,-95.958839,3.6157,JJ TRAVEL PLAZA,"I-70, EXIT 70 & US-83",5207
NC,Dunn,34.141831,-78.862301,3.709,PILOT TRAVEL CENTERS #900,"I-95, EXIT 75",5227
IA,Atalissa,43.08801,-92.425232,3.0157,ONE9 #496,"I-80, EXIT 265",5230
LA,Eunice,32.4374,-103.1596,3.399,CM EUNICE,US-190,5232
MO,Monett,39.885497,-90.338368,3.2907,SINCLAIR,SR-37,5234
MD,Elkton,39.187475,-75.346219,4.199,FLYING J #875,"I-95,  EXIT 109",5236
KS,Norton,39.603071,-95.376486,3.1573,CASEYS #3842,US-36 & US-283,5245
WI,Edgerton,42.980308,-89.69592,3.199,EDGERTON TRAVEL PLAZA,"I-90, EXIT 160 & US-51",5247
MO,Neelyville,37.191379,-90.038368,2.999,Taylor's Stateline Travel Center,US-67 & SR-278,5249
NC,Candler,34.671242,-78.544654,3.799,TA CANDLER TRAVEL CENTER,"I-40, EXIT 37",5254
KS,Olathe,38.203071,-97.458839,3.339,7-ELEVEN #35788,"I-35, EXIT 215",5255
LA,Hammond,30.234666,-92.370746,3.249,PT TRUCK STOP,"I-12, EXIT 42",5258
KS,Pratt,37.320718,-96.082368,3.1407,CASEYS #3548,US-54 & US-61,5282
NJ,Kearny,41.375375,-75.959246,3.799,TULLO TRUCK STOP,"I-95, EXIT 15E & US-1/US-9",5285
WA,Moses Lake,47.1301,-119.2779,4.0423,ERNIES TRUCK STOP,"I-90,  EXIT 179 & I-90 BUS/SR-17",5297
KY,Franklin,37.344611,-82.649479,3.084,Sudden Service #62,"I-65, EXIT 6 & SR-100",5299
VA,Troutville,39.104631,-78.972909,3.0323,ONE9 #258,"I-81, EXIT 150 & US-220 ALT & US-11",5302
OH,North Lima,40.9514,-80.6556,3.799,PILOT TRAVEL CENTERS #11,"I-76, EXIT 232",5306
GA,Tallapoosa,34.211207,-81.869545,3.4073,NEWBORN TRUCK STOP,I-20 EXIT 5,5309
MN,Northfield,46.547395,-92.638427,3.859,FLYING J #576,"I-35, EXIT 69",5310
OH,Fremont,37.5483,-121.9886,3.3823,HY-MILER #2245,SR-53,5324
IA,Le Mars,41.993892,-95.036997,3.299,KWIK STAR #1160,"US-75, EXIT 118 & SR-3",5341
GA,Wrens,32.105325,-84.869545,3.4157,JET FOOD STORE #17,US-1/SR=4/SR-540 & US-220/SR-47,5349
PA,Manheim,41.18487,-77.430343,4.499,SPEEDWAY #6767,"I-75, EXIT 20",5363
UT,Ogden,38.94415,-113.247728,3.749,FLYING J TRAVEL PLAZA #744,"I-15, EXIT 343",5389
AZ,San Simon,32.370935,-112.675339,2.959,PWI #605,"I-10, EXIT 378",5391
VA,Max Meadows,37.810513,-76.74938,3.549,FLYING J TRAVEL PLAZA #750,"I-81 & I-77, EXIT 80",5399
KS,Concordia,38.108953,-96.594133,2.9123,CASEYS #4535,US 81,5407
AZ,Eloy,32.7837,-111.5548,3.199,One9 #1216,"I-10 ,EXIT 200 & SR-84",5414
AZ,Kingman,35.1895,-114.053,3.399,USA TRAVEL CENTER,"I-40, EXIT 48 & US-93",5419
IL,Gilman,40.378869,-90.724372,3.129,K AND H TRUCK PLAZA,"I-57, EXIT 283 & US-24",5422
KY,Beaver Dam,38.509316,-86.708302,3.399,WK TRUCK STOP,"US-231 & SR-9001, EXIT 75",5424
KS,Meade,37.0266,-97.317662,3.799,MEADE AUTO AND TRUCK PLAZA,US-54,5435
KY,Caneyville,37.497552,-83.161243,3.7323,PARKWAY MARATHON,"US-79, EXIT 94",5436
LA,Shreveport,32.5252,-93.7502,3.1757,PETRO STOPPING CENTER #308,"I-20, EXIT 8 & SR-526",5446
ID,Idaho Falls,43.4917,-112.0339,3.4473,BOOZER KWIK STOP,"I-15, EXIT 118",5462
KY,Glendale,33.5387,-112.186,3.609,PILOT TRAVEL CENTERS #48,"I-65, EXIT 86",5464
FL,Cocoa,27.336867,-83.019136,3.3757,One9 #88,"I-95/SR-9, EXIT 201 & SR-520",5474
OR,Halsey,45.130845,-122.309173,3.099,CHEVRON #383766,"I-5, EXIT 216",5477
FL,Punta Gorda,28.407455,-82.930901,3.799,PILOT TRAVEL CENTERS #94,"I-75, EXIT 161",5479
KY,East Bernstadt,36.450493,-86.143596,2.999,49ER FUEL CENTER,"I-75, EXIT 49",5491
MD,Hancock,40.211005,-78.310925,4.129,BFS FOODS #68,"I-70, EXIT 3",5492
MO,Marston,38.297261,-91.697192,3.109,ONE9 #301,"I-55,  EXIT 40",5522
CO,Limon,39.2658,-103.6927,3.9207,TA LIMON TRAVEL CENTER,"I-70, EXIT 359 & US-24",5523
NC,Mount Airy,34.530066,-80.097595,3.599,FLYING J #549,"I-77, EXIT 100 & 101",5529
IL,Mount Vernon,39.33181,-88.077313,3.463,HUCKS TRAVEL CENTER #51 DBA FLYING J #889,"I-57/I-64, EXIT 95 & SR-15",5537
AR,Gurdon,35.999116,-93.899594,3.459,Southfork TRUCK STOP,"I-30, EXIT 63 & SR-53",5554
MO,Columbia,34.0007,-81.0348,3.539,MIDWAY TRAVEL PLAZA,I-70 EXIT 121 & US-40,5560
MO,Norwood,38.991379,-91.820721,3.449,TA EXPRESS NORWOOD #0450,US-60,5569
LA,Hammond,30.234666,-92.370746,3.249,PETRO STOPPING CENTER #310,"I-12, EXIT 40 & US-51 BUS",5570
NE,Columbus,39.9612,-82.9988,3.219,SAPP BROS TRAVEL CENTER,US-30,5579
SC,Columbia,34.0007,-81.0348,3.439,TA COLUMBIA NORTH,"I-20, EXIT 71 & US-21",5592
LA,Lake Charles,32.022901,-93.800158,3.299,CM LAKE CHARLES FUEL STOP 36,"I-10, EXIT 36 & SR-397",5597
KY,Paducah,38.179905,-83.055361,3.429,BP,"I-24, EXIT 16",5601
OH,North Canton,40.912312,-81.150209,3.624,TA NORTH CANTON TRAVEL CENTER,"I-77, EXIT 111",5603
ND,Mandan,46.8266,-100.8894,3.9523,FLYING J #511,"I-94, EXIT 147",5606
TX,Rice,30.930958,-96.33699,3.019,RICE MART,"I-45 & FM 1603, EXIT 238",5607
LA,Mansfield,30.034666,-93.358981,3.1357,SHOP A LOTT  #3,US-84 & US-171,5608
WA,Yakima,46.124431,-122.134612,3.999,CHEVRON #381108,"I-82, EXIT 36",5613
IN,Lebanon,39.855308,-85.843572,3.584,MCCLURE OIL #52,"I-65/US-52, EXIT 140 & SR-32",5618
LA,Sorrento,32.093489,-90.623687,3.699,Fast Stop,"I-10, EXIT 182 & SR-22",5649
KY,Waddy,38.215199,-84.978891,3.749,LOVES TRAVEL STOP #303,"I-64, EXIT 43 & SR-395",5651
TX,George West,32.272134,-95.684049,3.299,TEX-BEST #526,US-59 & US-281,5659
MA,Chicopee,43.494877,-72.421282,3.509,Pride Convenience Store,"I-90, EXIT 51 & I-291",5660
TN,Cookeville,34.600786,-85.85411,3.299,TA Express #287,"I-40, EXIT 288 & SR-111",5661
NC,Waynesville,34.400654,-81.862301,3.759,PILOT TRAVEL CENTERS #393,"I-40, EXIT 24 & SR-209",5667
MN,Dakota,44.55916,-93.94431,3.474,KWIK TRIP #497,I-90 EXIT 266 & CR-12,5669
IL,Mount Vernon,39.33181,-88.077313,3.4957,TA MOUNT VERNON TRAVEL CENTER,"I-57 & I-64, EXIT 95",5670
GA,Madison,43.0731,-89.4012,3.8907,TA MADISON TRAVEL CENTER,"I-20, EXIT 114 & US-441",5674
SD,Kadoka,43.8372,-101.4998,3.189,YESWAY #1178,CR-13,5677
MI,Benton Harbor,43.579559,-83.69786,3.059,Pilot Travel Center #666,"I-94, EXIT 30",5691
MI,Big Rapids,44.767794,-85.480213,3.4057,BEACON & BRIDGE #18,US-131 BUS,5700
TX,Dalhart,32.201546,-96.407579,3.199,TOOT N TOTUM #104,US-287,5718
MD,Jessup,38.716887,-76.77563,4.599,TA BALTIMORE SOUTH TRAVEL CENTER,"I-95, EXIT 41A & SR-175 & US-1",5721
WI,Menomonie,44.227367,-90.825332,3.649,MENOMONIE FARMERS UNION,"I-94, EXIT 45 & CR-B",5729
MI,Marlette,42.95603,-83.803742,3.399,SCOTTS QUICK STOP,SR-53 & SR-46,5730
MI,Monroe,43.014853,-83.486095,3.389,PILOT TRAVEL CENTERS #284,"I-75, EXIT 18",5739
GA,Lake Park,34.034737,-85.098956,3.3157,TA LAKE PARK TRAVEL CENTER,"I-75,  EXIT 2",5751
MI,Perry,42.873677,-84.121389,3.749,ROAD TRIP OASIS PERRY,"I-69, EXIT 105 & SR-52",5754
MI,Port Huron,44.720736,-84.59786,3.899,SPEEDY Q MARKET #8206,"I-94, EXIT 274",5758
WI,Belgium,44.815602,-89.748861,3.2557,Kwik Trip # 1281,"I-43, EXIT 107",5770
MI,Sawyer,44.367794,-86.027271,3.549,DUNES AUTO TRUCK PLAZA,"I-94, EXIT 12",5771
PA,Loganton,41.76134,-76.618579,3.479,PJ TRAVEL PLAZA,"I-80, EXIT 192 & SR-880",5774
NC,Linwood,36.730066,-81.80936,3.449,BILLS TRUCKSTOP,"I-85, EXIT 86",5780
MN,Alden,46.006219,-95.797251,3.299,STAPLES OIL,"I-90, EXIT 146",5799
VA,Wytheville,36.9484,-81.0848,3.519,TA WYTHEVILLE TRAVEL CENTER,"I-81, EXIT 72 & I-77, EXIT 41",5801
OR,Aurora,39.7294,-104.8319,4.0323,TA PORTLAND TRAVEL CENTER,"I-5,  EXIT 278",5821
SC,Hardeeville,33.909833,-81.536183,3.0823,ENMARKET #863,"I-95, EXIT 8 & SR-88",5823
MI,Marshall,32.5449,-94.3674,3.5057,115 TRUCKSTOP #5001,"I-94, EXIT 115",5830
IL,Monee,41.708281,-88.271431,3.4523,PETRO STOPPING CENTER #6367,"I-57,  EXIT 335",5842
MN,Faribault,44.2952,-93.2686,3.759,SPEEDWAY #4610,"I-35, EXIT 59 & SR-21",5860
MN,Mankato,44.923866,-94.314898,3.499,SOUTHERN VALLEY COOP,ST 14 BYPASS,5873
MN,Rothsay,45.488572,-93.785486,3.209,ROTHSAY TRUCK STOP,"I-94, EXIT 38",5901
MN,Sauk Centre,44.465042,-95.267839,3.189,Circle K #2746447,I-94/US-52 EXIT 127 & US-71/SR-28,5903
MN,Shakopee,46.006219,-93.397251,3.599,SPEEDWAY #4035,CR-101,5907
MN,Saint Charles,47.017983,-95.161957,3.529,SINCLAIR,"I-90, EXIT 233",5909
VA,Harrisonburg,38.328161,-79.978792,2.899,HARRISONBURG TRAVEL CENTER,"I-81,  EXIT 243 & US-11",5927
NJ,Mount Holly,39.551845,-75.765129,3.329,WESTHAMPTON VALERO,I-295 EXIT 47A,5935
MO,Barnhart,38.74432,-90.250133,2.9973,EXPRESS MART TRUCK STOP,"I-55, EXIT 185 & US-67/US-61",5942
WI,Lake Mills,44.850896,-89.748861,3.3607,LAKE MILLS TRAVEL PLAZA,"I-94, EXIT 259 & SR- 89/CR-G",5944
SD,Rapid City,45.4939,-97.312357,3.999,PILOT TRAVEL CENTERS #918,I-90 EXIT 55,5946
TX,Texarkana,29.778016,-99.16052,3.1657,EXXON,US-59 & LOOP 151,5949
IL,Okawville,39.802398,-90.142019,3.799,ROAD RANGER #157,I-64 EXIT 41,5951
TX,Ozona,30.130958,-97.148755,2.9823,OZONA ONE STOP,"I-10, EXIT 372",5963
SD,Beresford,44.246841,-99.253534,3.159,TRUCK TOWNE,I-29 EXIT 47 & SR-46,5965
FL,Perry,26.783926,-82.966195,3.699,WACO TRAVEL CENTER,SR-19,5971
LA,Lafayette,32.093489,-92.864864,3.134,TA LAFAYETTE TRAVEL CENTER,"I-10 & SR-182, EXIT 101",5979
VA,Petersburg,36.657572,-76.361144,3.199,THRIFT MART TRUCK PLAZA,"I-85/US-460, EXIT 63A & US-1/US-460 BUS",5980
VA,Amelia Court House,38.516396,-78.937615,3.599,360 TRUCK STOP,US-360,5990
WY,Rock Springs,41.5875,-109.2029,3.499,Fast Stop Travel Centers #1134,"I-80/US-30, EXIT 99 & US-191/SR-373",5996
AR,Arkadelphia,36.046175,-90.74077,3.529,PILOT TRAVEL STOP #492,"I-30, EXIT 78 & SR-7",5999
NM,Roswell,33.3943,-104.523,3.199,ALLSUPS #2392,US-70 & US-285,6001
MO,Chillicothe,38.873732,-90.14425,3.289,CASEYS #2652,US-65 & US-36,6009
TX,Junction,32.366252,-98.578167,2.999,SEGOVIA TRUCK STOP,"I-10, EXIT 465",6010
IL,Bloomington,40.590633,-86.824372,3.571,TA BLOOMINGTON TRAVEL CENTER,"I-55, I-74 & I-39 , EXIT 160",6018
MO,Deerfield,37.897261,-93.86778,3.349,EMERY'S,US-54,6033
NE,South Sioux City,39.778311,-97.800435,3.549,CRYSTAL OIL,"I-129/US-20/US-75,  EXIT 2",6037
VA,Hillsville,36.386984,-76.32585,3.2823,COCKERHAM FUEL CENTER #4,"I-77, EXIT 14 & US-58/US-221",6041
MO,Eolia,37.556085,-91.256015,3.099,FAST LANE #26,US-61,6047
CO,Longmont,40.1672,-105.1019,3.0573,CIRCLE K #2709846,"I-25, EXIT 240",6051
KS,Salina,39.485424,-96.13531,3.769,PILOT TRAVEL CENTER #903,"I-70/US-40, EXIT 252",6057
OH,Mendon,39.065254,-82.350209,3.199,MOTOR INN AUTO TRUCK STOP,I-75 EXIT 110,6058
MO,Hannibal,38.309026,-90.320721,3.099,AYERCO #24,US-61 & CR MM,6068
FL,Hialeah,25.8576,-80.2781,3.399,Palmetto Truck Plaza,US-27/SR-25 & SR-826,6082
MO,Holt,37.226673,-93.391309,3.049,BP,"I-35, EXIT 33",6083
MO,Fulton,38.238438,-92.156015,3.299,BREAK TIME #3173,US-54 & CR-HH,6087
NE,Elm Creek,42.013605,-97.465141,2.9657,ONE9 #901,"I-80 & US-183, EXIT 257",6093
OH,Waverly,41.077018,-81.044327,3.4157,Waverly Travel Center,US-23,6096
NE,Elm Creek,42.013605,-97.465141,3.1873,SAPP BROS TRAVEL CENTER,"I-80, EXIT 263",6097
OR,Huntington,44.272021,-121.073879,3.639,TA HUNTINGTON,"I-84, EXIT 353",6106
AR,Batesville,35.63441,-90.617241,3.359,HAWGS EXXON,US-167/SR-25,6111
VA,Troutville,39.104631,-78.972909,3.0657,CIRCLE K #2723707,"I-81,  EXIT 150",6150
AL,Grand Bay,33.177259,-86.058777,3.1357,TA MOBILE TRAVEL CENTER,"I-10,  EXIT 4",6154
IA,Walcott,41.535068,-93.025232,3.8723,PILOT TRAVEL CENTER #268,"I-80/US-6, EXIT 284",6164
MO,Grain Valley,38.226673,-91.979544,2.959,TEMP STOP #117,I-70 & GRAIN VALLEY RD EXIT 24,6165
MO,Nevada,39.309026,-92.66778,3.4957,PILOT TRAVEL CENTERS #167,US-71,6167
MI,Portland,45.5051,-122.675,3.624,SPEEDWAY #2319,"I-96, EXIT 77",6172
MI,Dexter,43.991324,-83.856683,3.6215,PILOT TRAVEL CENTERS #21,"I-94, EXIT 167",6173
PA,Mifflintown,40.831928,-75.489167,3.479,ONVO TRAVEL PLAZA - MIFFLINTOWN,US-322/US-22 & SR-35,6175
LA,Breaux Bridge,32.246431,-91.576629,3.3857,HENDERSON TRAVEL PLAZA,"I-10, EXIT 115 & SR-347",6179
TN,Chattanooga,35.0456,-85.3097,2.7857,Circle #4703923,"I-24, EXIT 180B & US-27",6180
AL,Heflin,32.141965,-87.399954,3.0157,Exxon,"I-20, EXIT 205 & SR-46",6182
MO,Ozark,37.320791,-92.085427,2.999,SIGNAL FOOD STORE #112,US-65 & SR-J,6188
VA,Stony Creek,38.598749,-78.867027,3.0657,DAVIS TRAVEL CENTER #102,"I-95/US-301, EXIT 33 & SR-602",6198
PA,Harrisville,40.643693,-78.806814,3.404,KWIK FILL #388,"I-80, EXIT 29 & SR-8",6200
WI,Portage,43.239131,-91.831214,3.8073,PETRO PORTAGE,"I-90 & I-94, EXIT 108-A",6206
MO,Pevely,37.826673,-92.526603,3.0157,MR FUEL,"I-55, EXIT 180",6212
WI,Richfield,44.780308,-91.654743,3.2157,PIONEER Travel Plaza,"I-41, EXIT 60 & SR-145",6214
NY,West Coxsackie,41.70102,-73.315698,3.599,FUEL HUB,"I-87, EXIT 21B",6215
NM,Gallup,35.340515,-106.16907,3.4373,LOVES TRAVEL STOP #215,"I-40, EXIT 16 & US-40 BUS/US-66",6218
ND,Minot,48.2325,-101.2963,3.549,SCHATZ CROSSROADS,US-2 /US-52,6219
TX,El Paso,31.7619,-106.485,3.0757,LOVES TRAVEL STOP #214,I-10 EXIT 37,6221
MO,Platte City,39.94432,-90.673662,2.999,QUIKTRIP #236,"I-29/US-71, EXIT 18 & SR-92",6222
TX,Dallas,32.7767,-96.797,3.2407,MARLOWS FUEL CENTER,"I-20, EXIT 479",6227
OH,South Vienna,41.535842,-81.061974,3.129,FUEL MART #764,"I-70, EXIT 66 & SR- 54",6229
MO,Richland,37.861967,-93.338368,3.324,OASIS TRUCK STOP,"I-44 & SR-133, MM 145",6232
MO,Foristell,39.450203,-90.691309,3.019,TA FORISTELL TRAVEL CENTER,"I-70, EXIT 203",6242
MO,Cabool,38.050203,-92.279544,3.299,GARDEN INN TRAVEL PLAZA,US-60/US-63,6243
LA,Breaux Bridge,32.246431,-91.576629,3.499,BREAUX BRIDGE VALERO #1408,"I-10 & SR-347, EXIT 115",6251
OH,Perrysburg,41.5578,-83.6274,3.759,PILOT TRAVEL CENTERS #12,I-80 & I-90 EXIT 71,6252
MO,Saint Joseph,38.379614,-91.450133,3.169,CASEYS #6342,"I-29, EXIT 144 & US-169",6258
TX,Denton,29.719193,-96.072285,3.254,TA DENTON TRAVEL CENTER,"I-35, EXIT 471 & US-77",6271
WA,North Bend,48.59502,-119.240494,3.9057,TA SEATTLE EAST TRAVEL CENTER,"I-90, EXIT 34",6275
IN,Portage,38.596485,-87.325925,3.999,7-ELEVEN #40513,I-90/80-IN TOLL RD MM 22W,6284
KY,Winchester,38.909316,-85.225949,2.9157,APPLE MARKET #526,"I-64, EXIT 94",6286
OH,Napoleon,40.771136,-82.632562,3.439,FUEL KING NAPOLEON TRAVEL CENTER,"US-6/US-24/SR/CR-3, EXIT 41",6290
NM,Milan,36.305221,-105.6926,3.5707,PETRO STOPPING CENTER #313,"I-40, EXIT 79",6293
MO,Maryville,39.132556,-92.24425,3.2657,GRAY TRUCK STOP,US-71/US-136,6296
IA,West Burlington,42.852715,-94.807585,3.374,HWY 34 TRUCKSTOP,"US-34, EXIT 258",6299
VA,Fredericksburg,38.916396,-75.955262,3.264,I-95 Fuel Stop,"I-95, EXIT 126 & US-17/US-1",6305
MO,Saint Peters,37.532556,-91.591309,2.904,QUIKTRIP #608,"I-70, MID RIVERS MALL",6307
KY,Simpsonville,37.744611,-86.125949,3.759,Pilot Travel Centers #354,"I-64, EXIT 28",6308
AR,Malvern,34.316763,-91.058417,3.3523,WINNERS CIRCLE #1,"I-30 & US-270, EXIT 98A",6309
FL,Sebring,27.536867,-82.207371,3.389,CIRCLE K #2707515,US-27/SR-25 & US-98/US-700/SR-700/SR-66,6310
MO,Taylor,39.497261,-90.408956,3.0157,AYERCO #25,US-24,6315
OK,Pauls Valley,35.218283,-98.649505,3.3873,Chisholm Corner #15,"I-35, EXIT 72 & US-19",6318
OK,Braman,34.888871,-97.731858,3.0273,KANZA TRAVEL PLAZA,"I-35, EXIT 231 AND US-177",6326
TN,Knoxville,35.9606,-83.9207,3.4257,PETRO STOPPING CENTER #312,"I-40 & I-75, EXIT 369",6327
TX,Edinburg,30.425075,-98.684049,3.0107,TA EDINBURG TRAVEL CENTER,I-69C/US-281 & FM-2812,6330
FL,Youngstown,26.41922,-82.877959,3.494,231 PLAZA AND TRUCK STOP,US-231/SR-75 & SR-20,6334
WY,Rawlins,41.7911,-107.2387,3.7223,TA RAWLINS TRAVEL CENTER,"I-80, EXIT 214",6341
MN,Windom,47.053278,-92.426663,3.299,SPEEDWAY #4710,US-71/SR-60,6346
AZ,Ehrenberg,33.888583,-112.040045,3.959,FLYING J TRAVEL PLAZA #608,"I-10, EXIT 1",6351
MS,Batesville,31.653411,-87.993402,3.2407,CIRCLE K #2721536,ST 6 EAST,6356
TX,Rockwall,32.001546,-97.148755,3.1373,TA ROCKWALL TRAVEL CENTER,"I-30/US-67, EXIT 68 & SR-205",6370
IL,Hampshire,40.143575,-89.824372,3.513,TA ELGIN WEST TRAVEL CENTER,I-90 &  US-20,6374
NV,Battle Mountain,39.578221,-118.917139,3.7923,FLYING J FRANCHISE #966,"I-80, EXIT 229",6387
TX,Dumas,31.83684,-97.925226,3.0057,TOOT N TOTUM #106,US-287,6391
IN,Leavenworth,39.18472,-84.872984,3.959,PILOT TRAVEL CENTER #478,"I-64, EXIT 92",6393
MS,Gulfport,31.935764,-91.381637,2.989,CIRCLE K #2723457,"I-10, EXIT 34-B",6401
IA,Fort Dodge,41.382127,-92.213467,3.299,AMPRIDE ALL ROUND TRUCK STOP,US-20,6434
KY,London,36.56814,-82.861243,3.499,GRAND OIL,"I-75, EXIT 41 & SR-80",6441
MS,Laurel,34.006352,-88.752225,2.999,CLARK OIL #49,US-84,6442
MS,Laurel,34.006352,-88.752225,2.9523,CIRCLE K #2723392,"I-59, EXIT 97 & US-84",6448
ND,Dunseith,47.452441,-97.939894,3.499,ARCO #471770,US-281 & SR-5,6462
OK,Sayre,35.2937,-99.6337,3.064,TA SAYRE TRAVEL CENTER,"I-40 & CEMETARY RD, EXIT 26",6468
OR,La Grande,45.3246,-118.0877,3.5357,FLYING J #934,"I-84, EXIT 265",6480
MS,Richland,32.07694,-91.858108,2.999,FLICKS,US-49,6492
TX,Mathis,29.83684,-95.454637,3.199,SPEEDY EXPRESS #38,"I-35, EXIT 305",6496
MO,Forest City,37.132556,-92.332486,3.339,SQUAW CREEK TRAVEL PLAZA,"I-29, EXIT 79 & US-159",6502
UT,Wendover,40.202973,-112.330081,3.499,HARDYS #5,"I-80, EXIT 4   4",6517
MT,Boulder,47.763101,-108.239647,3.559,TOWN PUMP FOOD STORE #310,"I-15, EXIT 164",6518
MI,Holland,44.7325,-82.903742,3.739,TULIP CITY TRUCK STOP,"I-196 & SR-40, EXIT 49",6526
MT,Park City,45.692513,-111.963177,3.584,ZIP TRIP #50,"I-90, EXIT 426",6527
WY,Gillette,44.2911,-105.5022,3.899,FLYING J TRAVEL PLAZA #762,"I-90, EXIT 126 & SR-59",6547
MO,Faucett,39.026673,-93.161897,3.2723,PILOT #1323,"I-29, EXIT 35",6562
TX,Gainesville,30.401546,-95.348755,3.1757,Road Ranger #282,"I-35, EXIT 500",6563
WA,Pasco,46.383255,-120.616965,4.599,FLYING J FRANCHISE #970,US-395,6564
TN,Greeneville,36.283139,-84.565874,3.5523,TA Greeneville Travel Center,"I-81,  EXIT 36",6565
MT,Livingston,47.492513,-111.345529,3.649,YELLOWSTONE TRUCK SHOP,"I-90, EXIT 330",6567
MD,Hagerstown,40.42277,-77.128572,3.659,AC & T TRAVEL CENTER,"I-81, EXIT 5 W",6577
MT,Shelby,45.821925,-112.104353,3.6357,PILOT TRAVEL CENTER #909- TOWN PUMP,"I-15 & US-2, EXIT 363",6578
MT,Whitehall,46.127807,-108.786706,3.659,TOWN PUMP FOOD STORE #4300,"I-90, EXIT 249",6588
AZ,Flagstaff,35.1983,-111.6513,3.539,LITTLE AMERICA TRAVEL CENTER,"I-40, EXIT 198",6593
MD,Millersville,39.293358,-78.310925,3.4657,TRANSIT TRUCK STOP,"I-97, EXIT 10",6607
NC,Charlotte,35.2271,-80.8431,3.999,7-ELEVEN #35560,SR-16,6608
NC,Haw River,37.094772,-79.691713,3.9423,FLYING J TRAVEL PLAZA #682,"I-85, EXIT 150",6628
GA,Richmond Hill,34.481795,-84.53425,3.3507,TA SAVANNAH TRAVEL CENTER,"I-95/SR-405,  EXIT 87 & US-17/SR-25",6632
OR,Baker City,44.7749,-117.8344,3.4257,BAKER TRUCK CORRAL,"I-84, EXIT 304",6633
CO,Johnstown,40.030399,-104.419928,3.4273,PETRO STOPPING CENTER JOHNSTOWN,"I-25, EXIT 254",6640
FL,Vero Beach,27.84275,-83.142665,3.484,TA VERO BEACH TRAVEL CENTER #197,"I-95/SR-9, EXIT 147 & SR-60",6642
IN,Rensselaer,41.325897,-84.608278,3.1323,FAMILY EXPRESS #35 (DISCOUNT AVAILABLE),"I-65, EXIT 215 & SR-114",6646
MD,Elkton,39.187475,-75.346219,4.969,BP DBA TA ELKTON TRAVEL CENTER,"I-95,  EXIT 109B",6655
IL,Gurnee,40.437692,-91.147902,3.334,GURNEE TRUCK STOP,US-41,6659
TN,Franklin,34.43608,-87.195286,3.839,TA FRANKLIN TRAVEL CENTER,"I-65, EXIT 61",6661
NC,Mocksville,36.683007,-79.691713,3.699,TA of Mocksville,"I-40, EXIT 170 & US-601",6663
SD,Sioux Falls,44.47037,-99.447652,3.199,ROADWAY TRAVEL CENTER,"I-29, EXIT 73",6677
NE,Fremont,37.5483,-121.9886,3.3457,SAPP BROS TRAVEL CENTER,US-77,6693
AL,Cullman,31.341965,-87.417601,3.999,JACKS TRUCK STOP,"I-65, EXIT 304 & SR-69",6701
MA,Whately,42.37723,-70.603635,3.559,FL Roberts,"I-91, EXIT 24",6704
ND,Fargo,47.793618,-98.310483,3.449,MARATHON,"I-29/US-81, EXIT 65 & I-94 BUS/US-10",6716
ND,Fargo,47.793618,-98.310483,3.3857,STAMART 1222,"I-29, EXIT 64",6721
ND,Grand Forks,47.181853,-100.481071,3.539,TA EXPRESS GRAND FORKS #948,"I-29, EXIT 141 & US-2",6725
CO,Fountain,39.689223,-103.149339,3.299,TOMAHAWK TRUCK STOP,"I-25, EXIT 128",6734
MO,Eagleville,39.603144,-91.76778,2.9357,EAGLEVILLE TRAVEL CENTER,"I-35 & ROUTE N, EXIT 106",6736
MN,Clearwater,45.73563,-94.579604,3.2207,Holiday #3810,"I-94/US-52, EXIT 178 & SR-24",6742
ND,Minot,48.2325,-101.2963,3.9357,FLYING J #550,US-2/US-52,6744
LA,Grosse Tete,31.952313,-90.464864,3.059,TIGER TRUCK STOP,"I-10, EXIT 139",6745
AR,North Little Rock,35.281469,-93.564299,3.2073,PETRO STOPPING CENTER #326,"I-40, EXIT 161 & SR-391",6755
NY,Lewis,43.053961,-75.080404,3.669,BETTY BEAVERS TRUCKSTOP,"I-87, EXIT 32",6760
SC,Walterboro,33.156892,-80.442066,3.079,CIRCLE C TRAVEL PLAZA,"I-95, EXIT 68 & SR-61",6765
PA,Kutztown,41.514281,-75.965637,3.3273,Onvo Travel Plaza,"I-78/US-22, EXIT 45 & SR-863",6806
VA,Ashland,36.716396,-77.561144,3.6057,TA RICHMOND,"I-95, EXIT 89 & SR-802",6810
NE,Hastings,39.848899,-97.747494,3.399,PUMP & PANTRY #24,US-6/CR-74,6811
TX,El Paso,31.7619,-106.485,3.124,PETRO STOPPING CENTER #301,"I-10, EXIT 37",6823
NM,Deming,32.2687,-107.7586,3.3857,PETRO DEMING,"I-10, EXIT 68",6840
MA,Shrewsbury,41.37723,-69.685988,3.6157,FLYNNS TRUCK PLAZA,"US-20, EXIT 11 & SR-140",6842
NE,Lexington,38.0406,-84.5037,2.999,NEBRASKALAND TIRE SHOP,"I-80, EXIT 237 & US-283",6845
WY,Douglas,43.738319,-106.464255,3.759,BROKEN WHEEL TRUCK STOP,"I-25, EXIT 135",6850
NV,Sparks,37.519397,-115.299492,3.899,TA SPARKS TRAVEL CENTER,"I-80, EXIT 19 & SR-659",6857
NE,Norfolk,36.8508,-76.2859,3.229,PRIME STOP,US-81,6859
AR,Malvern,34.316763,-91.058417,3.3157,JJS TRUCK STOP,"I-30, EXIT 106",6864
WV,Valley Grove,38.838285,-82.480924,3.529,TA WHEELING TRAVEL CENTER,"I-70, EXIT 11 & CR-41",6869
PA,Duncannon,41.714281,-75.736226,4.199,PILOT TRAVEL CENTERS #517,US- 22 & SR-322,6883
WV,Charleston,37.261814,-82.780924,3.499,GO MART FOOD STORE #31,"I-77, EXIT 95 & SR-61",6885
CO,Palisade,37.959811,-104.843457,3.379,PWI #535,"I-70, EXIT 47",6886
NE,Valentine,40.166546,-98.118082,3.329,Speedee Mart #2890,US-20 & US-83,6897
NE,Wisner,41.684194,-99.918082,3.259,PRIME STOP,US-275,6901
NH,Portsmouth,43.658374,-73.408014,3.6957,FLITE LINE SUNOCO,"I-95, EXIT 3",6915
AL,Tuskegee,34.306671,-85.194071,3.2723,TORCH 85 TRUCK PLAZA,"I-85, EXIT 42",6927
OR,Umatilla,45.930845,-121.762114,3.239,CROSSROADS TRUCK STOP,"I-82, EXIT 1 & US-730",6944
PA,Harrisburg,41.243693,-76.812696,3.869,PILOT #4563,"I-8I, EXIT 77",6948
OR,Pendleton,45.6721,-118.7886,3.259,ARROWHEAD TRAVEL PLAZA,"I-84, EXIT 216 & SR 331,",6951
NJ,Mahwah,40.222433,-74.79454,3.5857,BOLLA MARKET #198,SR-17MAHWA,6954
WY,Evanston,42.11479,-106.111314,3.699,FLYING J TRAVEL PLAZA #761,"I-80 & US-189, EXIT 3",6960
WY,Cheyenne,41.432437,-106.305431,3.709,LITTLE AMERICA,"I-80, EXIT 358 & I-25, EXIT 9 & US-30",6961
WY,Little America,43.738319,-105.546608,3.5257,LITTLE AMERICA TRAVEL CENTER,"I-80, EXIT 68 & SR-374",6962
NJ,Montague,40.116551,-75.606305,3.509,Atlantis Fresh Market #553,"I-84, EXIT 1",6963
WI,Fond Du Lac,45.368543,-87.807684,3.299,R STORE #4513,US-41,6968
WI,Hudson,44.568543,-90.313567,3.5473,TA Twin City East Travel Center,I-94  EXIT 4 & US-12,6970
WI,Richfield,44.780308,-91.654743,3.3907,KWIK TRIP #1013,"I-41, EXIT 57 & SR-167",6971
WI,De Forest,44.48619,-90.790037,3.199,TRUCKERS INN STOP,"I-90/I-94, EXIT 132 & US-51",6975
WI,Little Chute,44.062661,-90.878273,3.199,MOASIS TRUCK CENTER,US-41,6976
WI,De Forest,44.48619,-90.790037,3.839,TA MADISON TRAVEL CENTER,"I-90/I-94/I-39, EXIT 132 & US-51",6980
WI,Belmont,44.380308,-89.360626,3.564,Kwik Trip #1197,"US-151, EXIT 26",6981
WV,Hurricane,37.297108,-80.133865,3.6323,TA HURRICANE TRAVEL CENTER,"I-64, EXIT 39 & SR-34",6984
WA,Tacoma,47.2529,-122.4443,4.589,LOVES TRAVEL STOP #448,"I-5, EXIT 136B, SR-509",6986
WA,Ellensburg,46.9965,-120.5479,3.8657,One9 #965,"I-90, EXIT 109 & US-97",6987
WA,Tumwater,46.489137,-122.416965,4.599,FLYING J #1169,"I-5, EXIT 99",6992
WA,Spokane,47.6588,-117.426,4.035,FLYING J FRANCHISE #967,"I-90, EXIT 286",6994
VA,Bracey,38.292866,-77.437615,3.099,SIMMONS TRAVEL CENTER,"I-85, EXIT 4 & SR-93/SR-903",6999
VA,Ashland,36.716396,-77.561144,3.6423,TA ASHLAND TRAVEL CENTER,"I-95, EXIT 92 & SR-54",7003
VA,Chesapeake,36.7682,-76.2875,3.449,FRANKS TRUCKING CENTER,"I-264, EXIT 13B",7004
VA,Raphine,39.222278,-80.384674,3.659,PETRO STOPPING CENTER,"I-81 & I-64, EXIT 205",7005
IA,Coralville,40.770363,-93.731114,3.294,KUM & GO #0201,"I-80, EXIT 242",7007
UT,Beaver,41.591208,-113.971258,3.399,ERNIES TRUCK PLAZA,"I-15, EXIT 112",7013
UT,Tooele,40.579444,-110.141846,3.769,TA SALT LAKE CITY TRAVEL CENTER,"I-80, EXIT 99",7016
UT,Salt Lake City,40.7608,-111.891,3.7323,FLYING J TRAVEL PLAZA #746,"I-15 & I-80 SR 201, EXIT 305",7018
TX,Amarillo,32.119193,-99.566402,3.279,TA AMARILLO WEST TRAVEL CENTER,"I-40, EXIT 74",7023
TX,Van Horn,31.0391,-104.8307,3.999,SAMS TRUCK STOP,"I-10, EXIT 138",7037
NM,Farmington,36.034633,-108.410247,3.7057,BUBBLE CITY TRUCK STOP,US-64,7045
TX,Snyder,30.766252,-96.213461,3.2457,PILOT #887,US-84 & US-180,7051
TX,Sweetwater,32.048605,-95.842873,3.1523,TA SWEETWATER TRAVEL CENTER,"I-20, EXIT 242",7056
TX,Lubbock,33.5779,-101.8552,2.969,YESWAY #1125,"I-27, EXIT 1C",7058
TX,Big Spring,29.83684,-96.531108,3.699,TA BIG SPRING TRAVEL CENTER,"I-20, EXIT 177 & US-87",7059
TX,El Paso,31.7619,-106.485,3.4157,SPEEDWAY #9804,"I-10, EXIT 25",7064
TX,San Marcos,29.8833,-97.9414,2.999,REFUEL #328,"I-35,  EXIT 204",7066
TN,Antioch,36.03608,-86.418816,3.5057,TA ANTIOCH TRAVEL CENTER,"I-24, EXIT 62",7072
TN,Cornersville,36.777257,-86.259992,3.799,THE TENNESSEAN TRUCKSTOP,"I-65, EXIT 22 & US-31 ALT/SR-11",7077
TN,Denmark,35.541963,-87.95411,3.539,TA DENMARK TRAVEL CENTER,"I-40 & SR-138, EXIT 68",7078
NM,Moriarty,34.9898,-106.0492,3.1157,ONE9 #1422,"I-40, EXIT 197",7080
TN,Ardmore,34.1743,-97.1436,3.599,Chevron,"I-65, EXIT 6",7082
SD,Aberdeen,45.540958,-100.224122,3.114,Holiday StationStore #2746500,US-12 & US-281,7084
SD,Murdo,43.8869,-100.7177,3.799,PILOT #599,"I-90, EXIT 192 & I-90 BUS/US-83",7087
SD,Rapid City,45.4939,-97.312357,3.1573,FLYING J FRANCHISE #931,"I-90, EXIT 61",7088
SD,Sioux Falls,44.47037,-99.447652,3.889,LOVES TRAVEL STOP #445,I-90 EXIT 399 & SR 115,7092
SC,Manning,35.286304,-80.830301,3.5173,TA MANNING TRAVEL CENTER,"I-95, EXIT 119",7095
PA,Emlenton,41.467223,-77.995049,4.0357,PILOT DEALER #1163,"I-80, EXIT 42",7106
PA,Harrisburg,41.243693,-76.812696,3.8157,TA HARRISBURG TRAVEL CENTER,"I-81, EXIT 77 & SR-39",7112
PA,Milesburg,41.031928,-76.512696,4.049,TA MILESBURG TRAVEL CENTER,"I-80, EXIT 158",7116
PA,Bloomsburg,40.996634,-76.583284,3.9573,TA BLOOMSBURG TRAVEL CENTER,"I-80, EXIT 232",7121
PA,Clearfield,41.420164,-79.424461,3.899,SAPP BROS TRAVEL CENTER,"I-80, EXIT 120",7126
PA,Myerstown,39.773105,-79.265637,3.869,FLYING J #518,"I-78, EXIT 10 (PA 645)",7128
PA,Brookville,40.196634,-78.400931,4.029,TA BROOKVILLE TRAVEL CENTER,"I-80 EXIT 78, & SR-36",7129
PA,Breezewood,39.9959,-78.2378,4.299,TA BREEZEWOOD TRAVEL CENTER,"I-76 & US30, EXIT 161",7131
NV,Jean,38.695868,-117.611256,3.459,Terrible Herbst dba/One9 #1395,"I-15, EXIT 12",7132
PA,Carlisle,41.078987,-76.97152,4.149,PETRO STOPPING CENTER #336,"I-81, EXIT 52 & I-76, EXIT 226",7135
PA,Lamar,40.820164,-76.018579,4.0357,TA LAMAR TRAVEL CENTER,"I-80, EXIT 173 & SR-64",7136
PA,Harrisville,40.643693,-78.806814,4.044,TA BARKEYVILLE TRAVEL CENTER,"I-80, EXIT 29 & SR-8",7137
OR,Portland,45.5051,-122.675,3.859,JUBITZ TRAVEL PLAZA,"I-5, EXIT 307",7147
OR,Troutdale,45.5393,-122.3887,3.9323,TA TROUTDALE TRAVEL CENTER,"I-84, EXIT 17",7148
OK,Oklahoma City,35.4676,-97.5164,3.3023,TA OKLAHOMA CITY WEST TRAVEL CENTER,"I-40, EXIT 140",7154
OK,Oklahoma City,35.4676,-97.5164,3.3007,TA OKLAHOMA CITY EAST TRAVEL CENTER,"I-40, EXIT 142",7156
OH,London,40.500548,-81.009033,3.4923,TA London Travel Center,"I-70 & US-42, EXIT 79",7166
OH,Youngstown,41.618195,-82.756091,3.444,TA YOUNGSTOWN TRAVEL CENTER,"I-80 & SR 46, EXIT 223",7169
OH,Hubbard,41.300548,-82.473739,3.259,TRUCK WORLD TRUCKSTOP,"I-80, EXIT 234",7170
OH,Perrysburg,41.5578,-83.6274,3.7807,TA TOLEDO EAST TRAVEL CENTER,"I-80 & I-280, EXIT 71",7172
NY,Apalachin,42.677491,-73.050992,4.049,SPEEDWAY #9954,"SR-17, EXIT 66",7173
OH,Eaton,38.912312,-80.956091,3.4007,TA DAYTON TRAVEL CENTER,"I-70,  EXIT 10 & US-127",7176
NY,Buffalo,42.8864,-78.8784,3.729,JIMS TRUCK PLAZA,"I-90, EXIT 52E",7179
OH,Hebron,39.877018,-81.291386,3.3823,TA HebronTravel Center,"I-70, EXIT 126 & SR-37",7180
OH,Kingsville,40.994665,-82.473739,3.8823,TA KINGSVILLE TRAVEL CENTER,"I-90, EXIT 235 & SR-193",7183
OH,Jeffersonville,41.418195,-81.097268,3.3273,TA JEFFERSONVILLE EAST TRAVEL CENTER,"I-71, EXIT 65 & SR-435 & US-35",7184
ND,Jamestown,46.4995,-101.398718,3.5857,S and R Truck Plaza,"I-94, EXIT 260",7189
ND,Tower City,48.32303,-97.992836,3.5157,Tower Travel Center,"I-94, EXIT 307",7190
NC,Saluda,36.859478,-80.362301,3.099,SALUDA TRUCK PLAZA,"I-26, EXIT 28",7196
NY,Phelps,42.912785,-74.674522,4.034,7-ELEVEN #35115,"I-90, EXIT 42",7197
NC,Salisbury,35.835948,-80.697595,3.5107,LOVES TRAVEL STOP #507,"I-85, EXIT 71",7198
NY,Canaan,42.465726,-73.050992,3.419,ONVO TRAVEL PLAZA,"I-90 & RTE 22, EXIT B-3",7212
NY,Irving,41.148079,-73.774522,2.949,SENECA ONE STOP,"I-90, EXIT 58",7213
NY,Fultonville,43.512785,-74.427463,4.039,TA FULTONVILLE TRAVEL CENTER,"I-90, EXIT 28",7215
NY,Nichols,42.606902,-75.327463,3.419,ONVO TRAVEL PLAZA - LOUNSBERRY,"SR-17, EXIT 63",7216
NY,Glenmont,42.253961,-75.327463,3.774,CUMBERLAND FARMS #001662,US-9W/SR-32,7220
NM,Santa Rosa,38.4404,-122.7141,3.4523,TA SANTA ROSA TRAVEL CENTER,"I-40/US-54, EXIT 277 & US-84",7222
NM,Clovis,34.411103,-104.210247,4.089,LOVES TRAVEL STOP #329,US-60,7225
NM,Las Cruces,35.15228,-107.580835,3.1407,TA LAS CRUCES TRAVEL CENTER,"I-10, EXIT 139",7226
NM,Vado,36.12875,-108.304364,2.999,NATIONAL TRUCK STOP,"I-10, VADO EXIT 155",7227
NM,Albuquerque,35.0844,-106.6504,3.2073,MAVERIK COUNTRY STORE #638,"I-40, EXIT 159D & I-25/US-85, EXIT 227",7228
NM,Gallup,35.340515,-106.16907,3.4323,TA GALLUP TRAVEL CENTER,"I-40, EXIT 16 & HWY 66",7229
NM,Deming,32.2687,-107.7586,2.899,DEMING TRUCK STOP,"I-10, EXIT 81",7230
NM,Albuquerque,35.0844,-106.6504,3.5873,TA ALBUQUERQUE TRAVEL CENTER,"I-25, EXIT 227 OR 225",7231
NJ,Bloomsbury,39.069492,-73.841599,3.7907,TA BLOOMSBURY TRAVEL CENTER,"I-78/US-22, EXIT 7 & SR-173",7234
NJ,Columbia,34.0007,-81.0348,4.099,TA COLUMBIA TRAVEL CENTER,"I-80, EXIT 4 & SR-94",7237
NJ,Paulsboro,41.187139,-75.906305,3.999,TA PAULSBORO TRAVELCENTER,"I-295, EXIT 18A",7239
NJ,Hampton,39.54008,-75.006305,3.809,Pilot Travel Centers #190,"I-78, EXIT 12 & US-22",7240
NV,Las Vegas,36.1699,-115.1398,3.7357,TA LAS VEGAS TRAVEL CENTER,"I-15, EXIT 33",7244
NV,Las Vegas,36.1699,-115.1398,3.7673,WILD WILD WEST TRAVEL PLAZA,"I-15, EXIT 37",7248
NE,Big Springs,40.872429,-99.423964,3.4823,FLYING J #904,"I-80, EXIT 107",7263
NE,Alda,42.566546,-98.276906,3.169,TA GRAND ISLAND WEST TRAVEL CENTER,"I-80, EXIT 305",7264
NE,Hershey,42.495958,-96.829847,3.499,Fast Stop Travel Centers #1151,"I-80, EXIT 164 & CR-56C",7265
NE,Ogallala,41.1283,-101.7196,3.4657,TA OGALLALA TRAVEL CENTER,"I-80, EXIT 126",7267
NE,Omaha,41.2565,-95.9345,3.2807,SAPP BROS TRAVEL CENTER,"I-80, EXIT 440 & SR-50, EXIT 440",7268
NE,Grand Island,40.437135,-97.729847,3.2657,GRAND ISLAND TRAVEL CENTER,"I-80, EXIT 312 & US-281/US-34",7269
NY,Fort Edward,43.430432,-73.368639,3.769,ALLTOWN FRESH,"I-87, EXIT 17N & US-9",7282
MT,Missoula,47.327807,-110.569059,3.609,MURALTS TRUCK PLAZA,"I-90, EXIT 96 & US-93/SR-200",7284
NY,Salamanca,41.689255,-74.303933,3.309,SENECA ONE STOP,"SR-17, EXIT 20",7285
MT,Missoula,47.327807,-110.569059,3.699,TA MISSOULA,"I-90, EXIT 96 & US-93",7286
MT,Laurel,47.774866,-111.045529,3.6123,TA LAUREL,"I-90, EXIT 437",7288
MO,Strafford,39.073732,-90.74425,3.3657,TA STRAFFORD,"I-44, EXIT 88 & SR-125",7289
MO,Oak Grove,37.94432,-91.732486,3.2223,TA OAK GROVE TRAVEL CENTER,"I-70, EXIT 28",7291
MO,Matthews,37.697261,-91.185427,3.2057,TA Matthews Travel Center,"I-55, EXIT 58 & SR-80",7293
MO,Kingdom City,37.814909,-93.44425,2.959,GASPERS - FAST LANE,"I-70, EXIT 148 & US-54",7299
MO,Lebanon,37.861967,-90.479544,3.099,B AND D AUTO TRUCK PLAZA,"I-44, EXIT 127",7300
MS,Tillatoba,32.935764,-90.799284,2.784,AAA HOSPITALITY,"I-55, EXIT 220",7310
OH,Belmont,40.488783,-84.167856,3.419,208 FUEL PLAZA,"I-70, EXIT 208",7312
MS,Meridian,33.488705,-90.605167,2.9123,TA MERIDIAN TRAVEL CENTER,"I-20 & I-59, EXIT 160",7314
MN,Sauk Centre,44.465042,-95.267839,3.2257,TRUCKERS INN,"I-94/US-52, EXIT 127 & US-71",7323
MN,Albert Lea,43.648,-93.368,4.099,PETRO STOP #398,"I-35 & I-90, EXIT 11",7326
MI,Tekonsha,44.073677,-85.939036,3.629,TA TEKONSHA,"I-69,EXIT 25 & SR-60",7327
OH,Ironton,40.982901,-83.673739,3.699,SPEEDWAY #9266,US-52 & SR-234,7331
MI,Trenton,43.5325,-84.368448,3.379,FLYING J #895,"I-75, EXIT 32A",7332
MI,Sawyer,44.367794,-86.027271,3.694,TA SAWYER TRAVEL CENTER,"I-94, EXIT 12",7335
MI,Battle Creek,42.003089,-84.491977,4.0015,TA BATTLE CREEK,"I-94, EXIT 104",7337
MA,Wrentham,43.365465,-70.991871,3.699,INTERSTATE TRAVEL PLAZA,"I-495, EXIT 14A & US-1",7341
MA,Peabody,41.012524,-73.691871,3.6157,BEST QUICK STOP,US-1,7344
ME,Bangor,45.641006,-69.267221,3.799,DYSARTS SERVICE,"I-95, EXIT 44",7353
ME,Kittery,44.323359,-67.326045,3.899,CIRCLE K #4707065,"I-95, EXIT 2",7354
LA,Slidell,31.458195,-92.953099,3.154,TA SLIDELL TRAVEL CENTER,"I-10, EXIT 266 & US-190",7357
LA,Port Barre,30.034666,-91.62957,3.189,KINGS TRUCK STOP,ST 103,7360
OH,Girard,40.135842,-81.538444,3.4523,Petro Stopping Center,"I-80, EXIT 226",7364
KY,Smiths Grove,38.262258,-85.473008,3.4323,TA SMITHS GROVE,"I-65, EXIT 38 & SR-101",7370
KY,Sonora,36.391669,-86.073008,3.1957,One9 #392,"I-65, EXIT 81 & SR-84",7371
KY,Walton,38.56814,-84.096538,3.0023,TA WALTON #28,"I-75/I-71, EXIT 175 & SR-338",7372
KY,Franklin,37.344611,-82.649479,2.899,KEYSTOP TRAVEL CENTER,"I-65, EXIT 2 & US-31W",7379
KY,Florence,38.403434,-86.320067,3.0707,TA FLORENCE TRAVEL CENTER,"I-75, EXIT 181",7382
KS,Wakeeney,38.861894,-98.764721,3.0907,WAKEENEY 24 7 STORE #3,"I-70/US-40, EXIT 127 & US-283",7385
KS,Oakley,39.332482,-95.958839,3.649,TA Oakley,"I-70, EXIT 76 & US-40/US-83",7387
OH,Marietta,41.147607,-84.785503,3.799,GO MART FOOD STORE #58,"I-77, EXIT 1 & SR-7",7389
OH,Monroeville,39.241724,-80.850209,3.614,7-ELEVEN #36180,US-20/SR-18,7396
IA,Altoona,40.5187,-78.3947,3.349,FLYING J #913,"I-80, EXIT 142 & US-65",7398
OH,North Baltimore,40.065254,-82.914915,3.1123,FUEL MART #714,"I-75, EXIT 168",7403
IA,Sioux City,40.840951,-91.89582,3.6523,PILOT TRAVEL CENTER #594,"I-29, EXIT 143",7406
IA,Walcott,41.535068,-93.025232,3.9023,TA IOWA 80 TRAVEL PLAZA,"I-80, EXIT 284",7407
OH,Willard,40.571136,-81.379621,3.6323,FRIENDSHIP FOOD MART #99,US-224 & SR-61/SR-598,7408
IA,Urbandale,43.06448,-94.984055,3.349,PILOT TRAVEL CENTERS #373,"I-35 & I-80, EXIT 126",7410
IN,Gaston,39.878838,-86.496513,3.5357,PETRO STOPPING CENTER #374,"I-69, EXIT 245 & SR-28",7412
IN,Rensselaer,41.325897,-84.608278,3.2007,GOOD TO GO #40,"I-65, EXIT 215 & SR-114",7416
IN,Grovertown,40.655308,-87.890631,3.499,SKY CITGO,US-30 & SR-23,7417
IN,Peru,39.937661,-87.449454,3.444,JJS TRAVEL PLAZA,US-31 & US-24,7418
IN,Cambridge City,38.961191,-85.702396,3.4323,MIDLAND #1901,"I-70, EXIT 137 AT MILE 137",7421
IN,Brazil,40.314132,-87.41416,3.989,Petro Brazil,"I-70,  EXIT 23",7425
IN,Clayton,40.361191,-85.631807,3.939,TA CLAYTON,"I-70, EXIT 59 & SR-39",7429
IN,Remington,41.220014,-86.143572,3.699,PETRO STOPPING CENTER #375,"I-65, EXIT 201 & US-231/US-24",7435
IN,Whitestown,39.443544,-88.43769,3.5707,TA WHITESTOWN,"I-65/US-52, EXIT 130",7436
IN,Greensburg,41.055308,-86.549454,3.999,PETRO STOPPING CENTER #379,"I-74,  EXIT 143",7437
IL,Effingham,39.12,-88.5434,3.434,TA EFFINGHAM TRAVEL CENTER,"I-57 & I-70, EXIT 160",7457
IL,Morris,39.120045,-89.083196,3.849,TA Morris Travel Center,"I-80, EXIT 112 & SR-47",7459
IL,Marion,41.567104,-89.242019,3.759,PILOT #595,"I-57, EXIT 54B & SR-13",7466
IL,East Saint Louis,40.13181,-88.112608,3.524,PILOT TRAVEL CENTERS #313,"I-70/I-55, EXIT 4 & SR-203",7469
IL,Mc Lean,41.555339,-88.465549,3.399,ROAD RANGER #185,"I-55, EXIT 145 & US-136",7471
ID,Boise,43.615,-116.2023,3.7707,TA BOISE TRAVEL CENTER,"I-84, EXIT 54",7482
AL,Cusseta,33.436083,-87.523483,2.999,Mobil dba One9 #1365,"I-85, EXIT 70",7492
GA,Forest Park,32.399443,-84.428368,3.109,RACETRAC #2574,"I-75, EXIT 237, SR-331 & US-41",7495
GA,Adairsville,34.375913,-84.481309,3.1057,TEXACO,"I-75, EXIT 306 & SR-140",7504
GA,Lagrange,33.505325,-85.628368,3.9157,CHAPMANS TRUCK STOP,"I-85 & SR-219, EXIT 13",7506
MI,Pinconning,42.344265,-86.69786,3.639,EXPRESS STOP FOOD STORE #4644,"I-75, EXIT 181",7523
FL,Wildwood,28.348632,-81.995607,3.214,TA WILDWOOD TRAVEL CENTER,"I-75, EXIT 329 & SR-44",7533
FL,Jacksonville,30.3322,-81.6557,3.899,TA BALDWIN TRAVEL CENTER,"I-10, EXIT 343 & US-301",7534
FL,Tampa,27.9506,-82.4572,3.2573,GIANT #198,"I-4/SR-400, EXIT 7 & US-301/SR-41",7535
CT,Branford,40.956606,-73.064195,5.069,TA NEW HAVEN TRAVEL CENTER,"I-95, EXIT 56",7543
CT,Milford,40.615429,-70.964195,3.399,CITGO,"I-95, EXIT 40",7545
CT,North Stonington,41.815429,-72.305371,4.299,SHELL DBA PILOT DEALER #882,"I-95, EXIT 93 & SR-216",7546
CO,Watkins,37.877458,-103.766986,3.139,PWI #525,"I-70, EXIT 295",7551
CO,Wheat Ridge,40.371576,-106.996398,3.4157,TA DENVER WEST TRAVEL CENTER,"I-70, EXIT 266",7552
CO,Brush,38.571576,-106.02581,3.699,BRUSH TRAVEL PLAZA,"I-76, EXIT 90B & SR-71",7553
OK,Calumet,35.041813,-95.667152,3.1357,108 FOOD AND FUEL,"I-40, EXIT 108 & US-66/US-281 BUS",7574
OK,Chickasha,36.371224,-96.125976,3.1657,LOVES TRAVEL STOP #167,"I-44, EXIT 83",7611
AZ,Holbrook,34.902,-110.1598,3.179,HOPI TRAVEL PLAZA CONOCO DBA ONE9 #1270,"I-40, EXIT 292",7615
AZ,Tucson,32.2226,-110.9747,3.2223,TUCSON TRUCK TERMINAL,"I-10, EXIT 268",7617
OK,Copan,35.088871,-97.767152,3.119,COPAN TRUCK STOP,US-75,7622
AZ,Willcox,33.747406,-111.616515,3.3407,WILLCOX TRUCK PLAZA,"I-10, EXIT 340",7624
OK,Clinton,35.771224,-94.731858,3.1723,LOVES TRAVEL STOP #248,"I-40, EXIT 71",7625
OK,Davis,36.382989,-97.678917,2.979,DAVIS TRADING POST,"I-35, EXIT 55",7627
AL,Tuscumbia,34.177259,-88.370542,3.169,ARNOLDS TRUCK STOP,US-72/SR-20/SR-157 & CR-59,7629
AL,Montgomery,32.3668,-86.2999,3.2523,TA MONTGOMERY TRAVEL CENTER,"I-65, EXIT 168 & US-80/US-82/SR-6/SR-8",7635
AL,Tuscaloosa,31.365495,-84.699954,3.049,PILOT TRAVEL CENTER #76,"I-20 & I-59, EXIT 76",7636
OK,Erick,34.194754,-94.714211,3.2057,LOVES TRAVEL STOP #253,I-40 EXIT 7 & SR 30,7655
AZ,Kingman,35.1895,-114.053,3.8823,FLYING J TRAVEL PLAZA #610,"I-40, EXIT 53",7705
FL,Fort Myers,28.489808,-81.942665,3.799,PILOT TRAVEL CENTER #352,"I-75, EXIT 139",7708
KY,London,36.56814,-82.861243,3.399,LONDON AUTO TRUCK CENTER,"I-75, EXIT 41 & SR-80",7715
MO,Villa Ridge,38.097261,-90.920721,3.0157,MR FUEL #717,"I-44, EXIT 251",7718
MO,Warrenton,38.191379,-92.050133,3.1157,FLYING J TRAVEL PLAZA #674,"I-70, EXIT 188",7719
MT,Glendive,46.951337,-110.357294,3.459,TRAIL STAR TRUCK STOP,"ST 16, EXIT 213",7721
NE,York,40.190076,-100.218082,3.324,SAPP BROS TRAVEL CENTER,"I-80, EXIT 353 & US-81",7722
OH,Bradner,40.229959,-84.873739,3.4073,FUEL MART #767,US-6 & US-23,7724
OH,Dalton,41.124077,-80.938444,3.3857,BELL STORES #48,US-30 & SR-94,7725
TX,Amarillo,32.119193,-99.566402,3.2657,FLYING J TRAVEL PLAZA #723,"I-40, EXIT 76",7733
TX,Tulia,31.154487,-99.795814,3.3407,PILOT TRAVEL CENTER #888,"I-27, EXIT 74",7746
OK,Muskogee,36.065342,-98.296564,3.3373,LOVES TRAVEL STOP #166,SR-351,7753
WY,Cheyenne,41.432437,-106.305431,3.709,FLYING J TRAVEL PLAZA #759,"I-25, EXIT 7",7767
WY,Cheyenne,41.432437,-106.305431,3.204,BIG D #30,"I-25/US-87, EXIT 9 & I-80, EXIT 359C & I-80 BUS/US-30",7768
GA,Jackson,32.2988,-90.1848,3.384,FLYING J TRAVEL PLAZA #630,"I-75/SR-401, EXIT 201 & SR-36",7792
GA,Woodbine,33.31709,-82.55778,3.2323,CIRCLE K #2745100,"I-95, EXIT 7",7798
KY,Shepherdsville,37.36814,-83.478891,3.609,PILOT TRAVEL CENTERS #356,"I-65, EXIT 121",7825
MN,Inver Grove Heights,44.95916,-95.303133,3.579,PILOT #581,"US-52/SR-55, & 117TH ST, MM300",7838
NM,Texico,34.75228,-105.710247,3.829,STRIPES 7FLEET #42454,"US-60, US-70 & US-84",7871
NV,Carlin,37.613515,-118.828903,3.439,One9 #387,"I-80, EXIT 280 & SR- 278",7873
OH,New Paris,39.477018,-83.956091,3.4873,PETRO STOPPING CENTER #357,"I-70, EXIT 156B & US-40",7886
TN,Manchester,36.871374,-84.742345,3.099,I 24 TRUCK PLAZA,"I-24, EXIT 114 & US-41",7930
WI,Beloit,43.709719,-89.219449,3.799,PILOT TRAVEL CENTERS #289,"I-90/I-39, EXIT 158 & I-43/SR-81, EXIT 1",7946
WY,Cheyenne,41.432437,-106.305431,3.2257,SPF #45,"I-25/US-87, EXIT 7 & US-212",7959
OK,Oklahoma City,35.4676,-97.5164,3.2557,LOVES TRAVEL STOP #211,"I-35, EXIT 120",8840
OK,Pauls Valley,35.218283,-98.649505,2.999,PAULS VALLEY TRAVEL CENTER,"I-35, EXIT 72  & SR-19",8895
OK,Seminole,35.665342,-96.073035,3.3623,LOVES TRAVEL STOP #219,"I-40, EXIT 200",8927
VA,Ridgeway,38.928161,-78.708203,3.399,CIRCLE K #107,US-220 & CR-902,8936
UT,Nephi,39.802973,-114.059493,3.449,PARK N PUMP CIRCLE C,"I-15, EXIT 222",8948
TX,Pecos,31.4229,-103.4932,3.4657,FLYING J TRAVEL PLAZA #736,"I-20, EXIT 42 & US-285",8961
OK,Walters,34.206518,-96.849505,3.194,LOVES TRAVEL STOP #168,"I-44, EXIT 20",8977
OK,Webbers Falls,36.35946,-97.220093,3.789,LOVES TRAVEL STOP #255,"I-40, EXIT 287 & SR-100",8987
NE,Wood River,40.22537,-97.429847,3.2823,PILOT TRAVEL CENTERS #912,"I-80, EXIT 300 & SR-40D",9160
PA,Allentown,41.020164,-75.718579,3.6323,TREXLER PLAZA TRUCK STOP,I-78/US-22,9161
ME,Farmington,45.464535,-70.078986,3.899,CIRCLE K #4707005,US-2 & SR-4,9206
PA,Coopersburg,41.890752,-76.830343,3.759,309 TRUCK STOP,SR-309,9216
PA,Elverson,41.620164,-77.87152,3.889,7-ELEVEN #40286,"I-76,  EXIT 23/312",9241
PA,Greentown,39.878987,-79.300931,3.5457,ONVO TRAVEL PLAZA - LAKEWOOD,"I-84, EXIT 20 & SR-507",9280
PA,Harford,39.408399,-78.912696,3.609,ONVO EXPRESS,"I-81, EXIT 217 & SR-547",9289
PA,Ronks,39.726046,-75.242108,3.899,LANCASTER TRAVEL PLAZA,US-30,9340
PA,Mount Morris,40.267223,-76.512696,4.499,BFS FOODS TRUCK PLAZA,"I-79, EXIT 1",9354
SC,Latta,34.239245,-79.171478,3.349,FLYING J TRAVEL PLAZA #713,"I-95, EXIT 181",9365
PA,Dalton,40.173105,-78.806814,3.599,SCOTT FUEL TRAVEL PLAZA,"I-81, EXIT 199",9381
OH,Eaton,38.912312,-80.956091,3.4623,PILOT TRAVEL CENTERS #286,"I-70, EXIT 10 & SR-127",9382
OH,Hebron,39.877018,-81.291386,3.4457,PILOT TRAVEL CENTERS #285,"I-70, EXIT 126 & SR-37",9383
OH,North Baltimore,40.065254,-82.914915,3.2707,PETRO STOPPING CENTER #325,"I-75,  EXIT 167",9386
NJ,Bloomsbury,39.069492,-73.841599,3.809,PILOT TRAVEL CENTERS #280,"I-78, EXIT 7 & SR-173",9403
PA,Wayne,40.855458,-79.177402,3.889,7-ELEVEN #40287,"I-76, EXIT 24A/326",9415
MO,Kingdom City,37.814909,-93.44425,3.0573,PETRO STOPPING CENTER #318,"I-70, EXIT 148",9423
SC,West Columbia,32.933363,-78.97736,3.4123,CORNER PANTRY #127,"I-26, EXIT 115 & US-321",9449
KS,Lebo,39.414835,-98.164721,3.2307,TA BETO JUNCTION TRAVEL CENTER,"I-35, EXIT 155 & US-75",9451
IN,Chesterton,40.020014,-87.961219,3.849,TA PORTER TRAVEL CENTERS,"I-94, EXIT 22B & US-20",9467
IN,Lake Station,41.5742,-87.252,3.849,TA LAKE STATION,"I-80 & I-94, EXIT 15B",9468
SC,Cowpens,35.203951,-80.018536,3.399,TA EXPRESS COWPENS #477,"I-85, EXIT 83 & SR-110",9469
GA,Villa Rica,32.552384,-83.369545,3.419,PILOT TRAVEL CENTER #4559,"I-20, EXIT 26",9485
SC,North Augusta,34.603951,-81.130301,3.159,CIRCLE K #2705350,"I-20, EXIT 5 & US-25",9513
SC,Richburg,33.933363,-82.083242,3.109,SCOTCHMAN #3891,"I-77, EXIT 65 & SR-9",9525
WV,Teays,39.802991,-81.651512,3.499,GO MART FOOD STORE #43,"I-64, EXIT 39 & SR-34",9528
SC,Columbia,34.0007,-81.0348,3.1323,SPINX #266,"I-26, EXIT 104",9542
WI,Mauston,45.533249,-90.278273,3.2273,Mauston Interstate BP,"I-90/I-94, EXIT 69 & SR-82",9550
WI,Lyndon Station,44.639131,-87.384155,3.177,LYNDON STATION BP,I-90 & 94 EXIT 79,9553
SD,Belle Fourche,42.952723,-101.565299,3.2273,BIG D OIL #2,US-85 & US-34,9554
SD,Kimball,44.035076,-101.61824,3.089,DITTYS,"I-90, EXIT 284 & SR-45",9614
TX,Anna,31.413311,-97.219343,3.239,FLYING J #477,US-75,9618
SC,Florence,33.85101,-79.083242,3.349,PILOT TRAVEL CENTERS #62,"I-95, EXIT 170 & SR-327",9638
SD,Plankinton,44.788017,-97.788828,3.0273,COFFEE CUP FUEL STOP #4,"I-90, EXIT 310 & SR-281",9668
TN,Knoxville,35.9606,-83.9207,3.439,FLYING J TRAVEL PLAZA #722,"I-75 & I-40, EXIT 369",9675
OH,Canton,41.041724,-81.891386,3.369,SPEEDWAY #9400,US-30/US-62 & SR-297,9699
OH,Austinburg,39.277018,-81.591386,3.859,PILOT TRAVEL CENTERS #2,"I-90, EXIT 223 & SR-45",9703
NC,Whitsett,36.494772,-80.062301,3.9973,TA GREENSBORO TRAVEL CENTER,"I-40 & I-85, EXIT 138 & SR-61",9712
SD,Burbank,44.458606,-99.677063,3.099,TA Express Vermillion #275,"I-29, EXIT 26 & SR-50",9713
SD,Vivian,44.329194,-98.777063,3.0973,COFFEE CUP FUEL STOP #8,"I-90, EXIT 212 & SR-83",9717
NY,Parish,43.406902,-75.768639,3.799,One9 #1339,"I-81,  EXIT 34",9724
NV,Imlay,37.82528,-117.223021,3.794,TA MILL CITY TRAVEL CENTER,"I-80, EXIT 151",9746
NE,York,40.190076,-100.218082,3.3173,GOOD TO GO TRAVEL CENTER,"I-80, EXIT 353 & US-81",9747
MO,Saint Joseph,38.379614,-91.450133,3.149,DELUXE TRUCK STOP,SR-759,9763
MS,Pickens,33.029881,-91.011049,3.099,KANGAROO CROSSING #1101,"I-55, EXIT 144",9783
TN,Knoxville,35.9606,-83.9207,3.4257,TA KNOXVILLE WEST TRAVEL CENTER,"I-40 & I-75, EXIT 369",9803
MI,Dexter,43.991324,-83.856683,3.619,TA ANN ARBOR TRAVEL CENTER,"I-94, EXIT 167",9808
TN,Knoxville,35.9606,-83.9207,3.299,LEES FOOD MART #1398,"I-40, EXIT 398",9812
ME,Newport,46.017476,-69.108398,3.899,CIRCLE K #4707002,"I-95, EXIT 157",9818
TN,La Vergne,35.130198,-87.124698,3.4723,PILOT TRAVEL CENTERS #52,"I-24, EXIT 64",9821
KS,Moran,39.720718,-98.076486,3.2657,Petes #03,US-59 & US-54,9842
KS,Maple Hill,38.838365,-94.476486,3.0523,MAPLE HILL TRUCK STOP,"I-70, EXIT 341",9843
IA,Dubuque,41.123304,-91.931114,3.489,KWIK STOP #86,US-151/US-52/US-61,9851
IN,Whiteland,41.302367,-87.925925,3.959,PILOT TRAVEL CENTER #37,"I-65, EXIT 95",9855
IN,Rochester,43.1566,-77.6088,3.4057,PARADISE AUTO TRUCK PLAZA,US-31,9860
IN,Gary,41.137661,-84.978866,3.814,PILOT TRAVEL CENTER #271,"I-80, EXIT 6",9862
FL,Palm Bay,26.878044,-80.830901,3.2157,7-ELEVEN #40354,"I-95, EXIT 173",9887
AZ,Eloy,32.7837,-111.5548,3.4523,FLYING J TRAVEL PLAZA #609,"I-10, EXIT 208-A",9941
AL,Opelika,33.236083,-88.917601,2.999,CIRCLE K #2706690,"I-85/US-29, EXIT 62 & US-280/US-431/SR-38/SR-1",9945
VA,Ruther Glen,37.9315,-77.4885,3.619,FLYING J #876,"I-95, EXIT 104",9959
TX,Mcallen,29.566252,-98.472285,3.289,STRIPES #40673,"I-45, EXIT 179",9962
NY,Dansville,40.70102,-74.515698,4.499,TA DANSVILLE TRAVEL CENTER,"I-390 & COMMERCE, EXIT 5",9971
NJ,Mahwah,40.222433,-74.79454,3.5323,BOLLA MARKET,"I-287, EXIT 66",9973
TN,Selmer,36.083139,-88.607051,3.174,JIMS  BEST STOP,US-45 & US-64,9990
IA,Clive,42.582127,-92.425232,3.3407,LOVES TRAVEL STOP #411,"I-35 & I-80, EXIT 125 & US-6",9995
GA,Bremen,34.246501,-81.393074,3.0873,Circle K #2723687,"I-20, EXIT 11 & US-27/SR-1",9997
KS,Florence,38.344247,-95.500015,3.499,FLINT HILLS FUEL MART,US-50 & US-77,10006
GA,Savannah,32.411207,-84.040133,3.0323,CIRCLE K #2705346,SR-307,10007
